,Role,Sector,Experience,City,State,Salary_in_office,Salary_remote,Avg.OfficeRent_per_sqft,Office Rent,Annual Commute Cost,Avg internet monthly payment,Electricity Price (cents per kWh),Cost of Living Index,National_Avg_Salary,In-Office Expenses,Remote Work Expenses,Total In-office salary,Total Remote salary,remote_vs_office_cost_ratio,lat,lng
0,Software quality assurance tester,Private,Entry,Bloomington,Minnesota,146500.0,54941.6,28.08,50544.0,5231.86,68.66,14.05,98.11,56000.0,55775.86,2341.32,202275.86,57282.92,0.28,44.8306,-93.3151
1,Software quality assurance tester,Private,Entry,Wheat Ridge,Colorado,29740.0,60648.0,25.38,45684.0,5740.88,80.83,15.16,108.3,56000.0,51424.88,2607.24,81164.88,63255.24,0.78,39.7728,-105.1028
2,Software quality assurance tester,Private,Entry,Sacramento,California,62500.0,67368.0,26.2,47160.0,5912.24,80.83,30.55,120.3,56000.0,53072.24,4269.36,115572.24,71637.36,0.62,38.5677,-121.4685
3,Software quality assurance tester,Private,Entry,Naperville,Illinois,81500.0,49313.6,23.22,41796.0,7041.83,80.83,15.99,88.06,56000.0,48837.83,2696.88,130337.83,52010.48,0.4,41.748,-88.1659
4,Software quality assurance tester,Private,Entry,Dublin,Ohio,64000.0,49728.0,21.74,39132.0,4054.52,80.83,15.98,88.8,56000.0,43186.52,2695.8,107186.52,52423.8,0.49,40.1112,-83.1454
5,Software quality assurance tester,Private,Entry,Johnstown,Colorado,77500.0,60648.0,25.38,45684.0,5740.88,80.83,15.16,108.3,56000.0,51424.88,2607.24,128924.88,63255.24,0.49,40.3499,-104.9482
6,Software quality assurance tester,Private,Entry,Southfield,Michigan,65000.0,50310.4,20.47,36846.0,3880.78,80.83,18.41,89.84,56000.0,40726.78,2958.24,105726.78,53268.64,0.5,42.4765,-83.2605
7,Software quality assurance tester,Private,Entry,Mount Laurel,New Jersey,35375.0,57904.0,19.15,34470.0,8059.16,82.79,19.49,103.4,56000.0,42529.16,3098.4,77904.16,61002.4,0.78,,
8,Software quality assurance tester,Private,Entry,Raleigh,North Carolina,21500.0,55832.0,31.68,57024.0,5262.66,80.83,13.49,99.7,56000.0,62286.66,2426.88,83786.66,58258.88,0.7,35.8324,-78.6429
9,Software quality assurance tester,Private,Entry,Andover,Massachusetts,55000.0,64148.0,48.35,87030.0,6062.35,93.6,31.22,114.55,56000.0,93092.35,4494.96,148092.35,68642.96,0.46,,
10,Software quality assurance tester,Private,Entry,San Diego,California,38970.0,76272.0,41.6,74880.0,6210.03,80.83,30.55,136.2,56000.0,81090.03,4269.36,120060.03,80541.36,0.67,32.8313,-117.1222
11,Software quality assurance tester,Private,Entry,Deerfield Beach,Florida,65000.0,56705.6,26.83,48294.0,4977.02,83.25,14.2,101.26,56000.0,53271.02,2532.6,118271.02,59238.2,0.5,26.305,-80.1277
12,Software quality assurance tester,Private,Entry,Novi,Michigan,80000.0,50310.4,29.41,52938.0,3880.78,80.83,18.41,89.84,56000.0,56818.78,2958.24,136818.78,53268.64,0.39,42.4786,-83.4893
13,Software quality assurance tester,Private,Entry,,New Jersey,36250.0,57904.0,31.19,56142.0,8059.16,82.79,19.49,103.4,56000.0,64201.16,3098.4,100451.16,61002.4,0.61,,
14,Software quality assurance tester,Private,Entry,Austin,Texas,85500.0,59696.0,41.81,75258.0,6365.46,80.83,15.32,106.6,56000.0,81623.46,2624.52,167123.46,62320.52,0.37,30.3005,-97.7522
15,Software quality assurance tester,Private,Entry,Anchorage,Alaska,76500.0,61992.0,36.46,65628.0,4845.27,103.73,22.38,110.7,56000.0,70473.27,3661.8,146973.27,65653.8,0.45,61.1508,-149.1091
16,Software quality assurance tester,Private,Entry,Boston,Massachusetts,80000.0,74256.0,65.72,118296.0,8589.18,93.6,31.22,132.6,56000.0,126885.18,4494.96,206885.18,78750.96,0.38,42.3188,-71.0852
17,Software quality assurance tester,Private,Entry,Albany,New York,71500.0,56056.0,19.46,35028.0,6758.4,80.83,24.37,100.1,56000.0,41786.4,3601.92,113286.4,59657.92,0.53,42.6664,-73.7987
18,Software quality assurance tester,Private,Entry,Santa Fe,New Mexico,38560.0,58856.0,19.07,34326.0,4666.31,68.46,14.26,105.1,56000.0,38992.31,2361.6,77552.31,61217.6,0.79,35.6619,-105.9819
19,Software quality assurance tester,Private,Entry,Cupertino,California,203500.0,70420.0,65.47,117846.0,7036.89,80.83,30.55,125.75,56000.0,124882.89,4269.36,328382.89,74689.36,0.23,37.3168,-122.0466
20,Software quality assurance tester,Private,Entry,Oklahoma City,Oklahoma,36790.0,48888.0,21.53,38754.0,4392.38,81.27,11.52,87.3,56000.0,43146.38,2219.4,79936.38,51107.4,0.64,35.4676,-97.5136
21,Software quality assurance tester,Private,Entry,Atlanta,Georgia,82000.0,56168.0,34.79,62622.0,7289.35,80.83,13.49,100.3,56000.0,69911.35,2426.88,151911.35,58594.88,0.39,33.7628,-84.422
22,Software quality assurance tester,Private,Entry,Anaheim Hills,California,88500.0,70420.0,40.28,72504.0,7036.89,80.83,30.55,125.75,56000.0,79540.89,4269.36,168040.89,74689.36,0.44,,
23,Software quality assurance tester,Private,Entry,Dayton,Ohio,76500.0,49504.0,18.88,33984.0,4054.52,80.83,15.98,88.4,56000.0,38038.52,2695.8,114538.52,52199.8,0.46,39.7805,-84.2003
24,Software quality assurance tester,Private,Entry,Cupertino,California,168500.0,70420.0,65.47,117846.0,7036.89,80.83,30.55,125.75,56000.0,124882.89,4269.36,293382.89,74689.36,0.25,37.3168,-122.0466
25,Software quality assurance tester,Private,Entry,Huntsville,Alabama,83000.0,51128.0,24.98,44964.0,4951.76,74.1,14.91,91.3,56000.0,49915.76,2499.48,132915.76,53627.48,0.4,34.6981,-86.6412
26,Software quality assurance tester,Private,Entry,San Jose,California,40000.0,97160.0,45.99,82782.0,8394.62,80.83,30.55,173.5,56000.0,91176.62,4269.36,131176.62,101429.36,0.77,37.3012,-121.848
27,Software quality assurance tester,Private,Entry,Barceloneta,Puerto Rico,34000.0,63756.0,36.46,65628.0,7073.12,80.83,20.27,113.85,56000.0,72701.12,3159.03,106701.12,66915.03,0.63,18.453,-66.5381
28,Software quality assurance tester,Private,Entry,South Jordan,Utah,74000.0,55977.6,27.57,49626.0,4143.37,69.01,11.02,99.96,56000.0,53769.37,2018.28,127769.37,57995.88,0.45,40.557,-111.9784
29,Software quality assurance tester,Private,Entry,Laramie,Wyoming,70500.0,53508.0,36.46,65628.0,7073.12,58.63,11.78,95.55,56000.0,72701.12,1975.8,143201.12,55483.8,0.39,41.3099,-105.6085
30,Software quality assurance tester,Private,Entry,Santa Monica,California,127000.0,70420.0,64.94,116892.0,7036.89,80.83,30.55,125.75,56000.0,123928.89,4269.36,250928.89,74689.36,0.3,34.0235,-118.481
31,Software quality assurance tester,Private,Entry,Round Rock,Texas,76000.0,50988.0,27.45,49410.0,5151.54,80.83,15.32,91.05,56000.0,54561.54,2624.52,130561.54,53612.52,0.41,30.527,-97.6642
32,Software quality assurance tester,Private,Entry,Morehead City,North Carolina,65000.0,57232.0,27.48,49464.0,4979.85,80.83,13.49,102.2,56000.0,54443.85,2426.88,119443.85,59658.88,0.5,34.7308,-76.7388
33,Software quality assurance tester,Private,Entry,Omaha,Nebraska,81000.0,52024.0,24.26,43668.0,4094.4,80.83,10.78,92.9,56000.0,47762.4,2134.2,128762.4,54158.2,0.42,41.2627,-96.0529
34,Software quality assurance tester,Private,Entry,Florence,Kentucky,47000.0,49380.8,20.2,36360.0,4469.83,79.56,13.28,88.18,56000.0,40829.83,2388.96,87829.83,51769.76,0.59,38.9899,-84.6471
35,Software quality assurance tester,Private,Entry,Atlanta,Georgia,37500.0,56168.0,34.79,62622.0,7289.35,80.83,13.49,100.3,56000.0,69911.35,2426.88,107411.35,58594.88,0.55,33.7628,-84.422
36,Software quality assurance tester,Private,Entry,Bridgeton,Missouri,71000.0,49151.2,21.59,38862.0,3937.23,72.8,11.57,87.77,56000.0,42799.23,2123.16,113799.23,51274.36,0.45,38.7673,-90.4275
37,Software quality assurance tester,Private,Entry,San Jose,California,85000.0,97160.0,45.99,82782.0,8394.62,80.83,30.55,173.5,56000.0,91176.62,4269.36,176176.62,101429.36,0.58,37.3012,-121.848
38,Software quality assurance tester,Private,Entry,Charlotte,North Carolina,138500.0,54824.0,33.02,59436.0,5658.26,80.83,13.49,97.9,56000.0,65094.26,2426.88,203594.26,57250.88,0.28,35.2083,-80.8303
39,Software quality assurance tester,Private,Entry,,Virginia,81500.0,53037.6,28.91,52038.0,5590.44,86.7,14.46,94.71,56000.0,57628.44,2602.08,139128.44,55639.68,0.4,,
40,Software quality assurance tester,Private,Entry,South San Francisco,California,87500.0,70420.0,48.02,86436.0,7036.89,80.83,30.55,125.75,56000.0,93472.89,4269.36,180972.89,74689.36,0.41,37.6538,-122.4196
41,Software quality assurance tester,Private,Entry,Baton Rouge,Louisiana,118000.0,51016.0,20.05,36090.0,3786.25,80.83,11.7,91.1,56000.0,39876.25,2233.56,157876.25,53249.56,0.34,30.442,-91.1311
42,Software quality assurance tester,Private,Entry,Lafayette,Colorado,90000.0,60648.0,25.38,45684.0,5740.88,80.83,15.16,108.3,56000.0,51424.88,2607.24,141424.88,63255.24,0.45,39.9946,-105.0998
43,Software quality assurance tester,Private,Entry,Sterling,Virginia,115000.0,53037.6,22.26,40068.0,5590.44,86.7,14.46,94.71,56000.0,45658.44,2602.08,160658.44,55639.68,0.35,39.0052,-77.405
44,Software quality assurance tester,Private,Entry,San Diego,California,69500.0,76272.0,41.6,74880.0,6210.03,80.83,30.55,136.2,56000.0,81090.03,4269.36,150590.03,80541.36,0.53,32.8313,-117.1222
45,Software quality assurance tester,Private,Entry,Kansas City,Missouri,112000.0,51296.0,20.86,37548.0,4508.63,72.8,11.57,91.6,56000.0,42056.63,2123.16,154056.63,53419.16,0.35,39.1238,-94.5541
46,Software quality assurance tester,Private,Entry,Washington,District of Columbia,92000.0,67256.0,52.54,94572.0,7073.12,80.83,20.27,120.1,56000.0,101645.12,3159.03,193645.12,70415.03,0.36,38.9047,-77.0163
47,Software quality assurance tester,Private,Entry,Brentwood,Tennessee,78500.0,50618.4,31.76,57168.0,4096.03,80.83,13.04,90.39,56000.0,61264.03,2378.28,139764.03,52996.68,0.38,35.9918,-86.7758
48,Software quality assurance tester,Private,Entry,Denver,Colorado,43500.0,62776.0,36.45,65610.0,6740.21,80.83,15.16,112.1,56000.0,72350.21,2607.24,115850.21,65383.24,0.56,39.762,-104.8758
49,Software quality assurance tester,Private,Entry,Wichita,Kansas,16000.0,48608.0,18.33,32994.0,3524.25,80.83,13.85,86.8,56000.0,36518.25,2465.76,52518.25,51073.76,0.97,37.6895,-97.3443
50,Software quality assurance tester,Private,Entry,Grand Rapids,Michigan,72500.0,52472.0,22.56,40608.0,3494.24,80.83,18.41,93.7,56000.0,44102.24,2958.24,116602.24,55430.24,0.48,42.9619,-85.6562
51,Software quality assurance tester,Private,Entry,Colorado Springs,Colorado,154500.0,57232.0,22.25,40050.0,4572.31,80.83,15.16,102.2,56000.0,44622.31,2607.24,199122.31,59839.24,0.3,38.8674,-104.7605
52,Software quality assurance tester,Private,Entry,Albany,New York,106000.0,56056.0,19.46,35028.0,6758.4,80.83,24.37,100.1,56000.0,41786.4,3601.92,147786.4,59657.92,0.4,42.6664,-73.7987
53,Software quality assurance tester,Private,Entry,Reno,Nevada,71000.0,60144.0,25.82,46476.0,4502.88,80.83,14.88,107.4,56000.0,50978.88,2577.0,121978.88,62721.0,0.51,39.5497,-119.8483
54,Software quality assurance tester,Private,Entry,Eglin AFB,Florida,95500.0,56705.6,31.24,56232.0,4977.02,83.25,14.2,101.26,56000.0,61209.02,2532.6,156709.02,59238.2,0.38,30.4592,-86.5499
55,Software quality assurance tester,Private,Entry,Largo,Florida,79500.0,56705.6,31.24,56232.0,4977.02,83.25,14.2,101.26,56000.0,61209.02,2532.6,140709.02,59238.2,0.42,27.9088,-82.7712
56,Software quality assurance tester,Private,Entry,Salt Lake City,Utah,98500.0,59304.0,26.96,48528.0,4143.37,69.01,11.02,105.9,56000.0,52671.37,2018.28,151171.37,61322.28,0.41,40.7776,-111.9311
57,Software quality assurance tester,Private,Entry,Boulder,Colorado,155000.0,66472.0,28.32,50976.0,5740.88,80.83,15.16,118.7,56000.0,56716.88,2607.24,211716.88,69079.24,0.33,40.0248,-105.2524
58,Accountant,Private,Entry,Westlake,Louisiana,45000.0,40351.984,19.57,35226.0,3973.93,80.83,11.7,88.6,45544.0,39199.93,2233.56,84199.93,42585.54,0.51,30.2606,-93.2638
59,Accountant,Private,Entry,Lincoln,Nebraska,54000.0,43130.168,20.58,37044.0,3710.21,80.83,10.78,94.7,45544.0,40754.21,2134.2,94754.21,45264.37,0.48,40.8099,-96.6784
60,Accountant,Private,Entry,Chapel Hill,North Carolina,56000.0,41827.6096,29.56,53208.0,4979.85,80.83,13.49,91.84,45544.0,58187.85,2426.88,114187.85,44254.49,0.39,35.9271,-79.0391
61,Accountant,Private,Entry,Washington,District of Columbia,65000.0,54698.344,52.54,94572.0,7073.12,80.83,20.27,120.1,45544.0,101645.12,3159.03,166645.12,57857.38,0.35,38.9047,-77.0163
62,Accountant,Private,Entry,Richfield,Ohio,65000.0,40443.072,20.56,37008.0,4054.52,80.83,15.98,88.8,45544.0,41062.52,2695.8,106062.52,43138.87,0.41,41.2354,-81.6421
63,Accountant,Private,Entry,Des Moines,Iowa,96000.0,41763.848,25.08,45144.0,3640.73,75.86,12.43,91.7,45544.0,48784.73,2252.76,144784.73,44016.61,0.3,41.5725,-93.6105
64,Accountant,Private,Entry,Mayetta,Kansas,57000.0,39782.684,22.91,41238.0,4429.11,80.83,13.85,87.35,45544.0,45667.11,2465.76,102667.11,42248.44,0.41,39.3386,-95.7216
65,Accountant,Private,Entry,Raleigh,North Carolina,127500.0,45407.368,31.68,57024.0,5262.66,80.83,13.49,99.7,45544.0,62286.66,2426.88,189786.66,47834.25,0.25,35.8324,-78.6429
66,Accountant,Private,Entry,Industry,California,27000.0,57271.58,40.28,72504.0,7036.89,80.83,30.55,125.75,45544.0,79540.89,4269.36,106540.89,61540.94,0.58,34.0175,-117.9267
67,Accountant,Private,Entry,Middletown,Pennsylvania,52500.0,42560.868,28.6,51480.0,6024.26,84.33,17.6,93.45,45544.0,57504.26,2912.76,110004.26,45473.63,0.41,40.201,-76.7289
68,Accountant,Private,Entry,Middletown,Pennsylvania,52500.0,42560.868,28.6,51480.0,6024.26,84.33,17.6,93.45,45544.0,57504.26,2912.76,110004.26,45473.63,0.41,40.644,-75.3244
69,Accountant,Private,Entry,Rochester,New York,70000.0,43995.504,21.48,38664.0,3519.92,80.83,24.37,96.6,45544.0,42183.92,3601.92,112183.92,47597.42,0.42,43.168,-77.6162
70,Accountant,Private,Entry,Tacoma,Washington,31500.0,48741.1888,27.12,48816.0,7045.22,80.83,11.83,107.02,45544.0,55861.22,2247.6,87361.22,50988.79,0.58,47.2431,-122.4531
71,Accountant,Private,Entry,Morrisville,North Carolina,55500.0,41827.6096,29.77,53586.0,4979.85,80.83,13.49,91.84,45544.0,58565.85,2426.88,114065.85,44254.49,0.39,35.8368,-78.8348
72,Accountant,Private,Entry,Lexington Park,Maryland,60000.0,46054.0928,26.17,47106.0,6001.22,75.44,18.15,101.12,45544.0,53107.22,2865.48,113107.22,48919.57,0.43,38.2528,-76.4424
73,Accountant,Private,Entry,Saint Peters,Missouri,48500.0,39973.9688,21.59,38862.0,3937.23,72.8,11.57,87.77,45544.0,42799.23,2123.16,91299.23,42097.13,0.46,,
74,Accountant,Private,Entry,Tysons Corner,Virginia,69500.0,43134.7224,28.91,52038.0,5590.44,86.7,14.46,94.71,45544.0,57628.44,2602.08,127128.44,45736.8,0.36,,
75,Accountant,Private,Entry,Baltimore,Maryland,54500.0,48732.08,26.17,47106.0,6001.22,75.44,18.15,107.0,45544.0,53107.22,2865.48,107607.22,51597.56,0.48,39.3051,-76.6144
76,Accountant,Private,Entry,Las Vegas,Nevada,25000.0,45862.808,30.23,54414.0,5392.82,80.83,14.88,100.7,45544.0,59806.82,2577.0,84806.82,48439.81,0.57,36.2333,-115.2654
77,Accountant,Private,Entry,Troy,Michigan,61000.0,40916.7296,19.87,35766.0,3880.78,80.83,18.41,89.84,45544.0,39646.78,2958.24,100646.78,43874.97,0.44,42.5817,-83.1457
78,Accountant,Private,Entry,San Francisco,California,88000.0,81341.584,62.2,111960.0,12650.66,80.83,30.55,178.6,45544.0,124610.66,4269.36,212610.66,85610.94,0.4,37.7558,-122.4449
79,Accountant,Private,Entry,Vonore,Tennessee,58000.0,41167.2216,27.17,48906.0,4096.03,80.83,13.04,90.39,45544.0,53002.03,2378.28,111002.03,43545.5,0.39,35.5977,-84.2364
80,Accountant,Private,Entry,New York,New York,66500.0,58296.32,33.56,60408.0,10831.74,80.83,24.37,128.0,45544.0,71239.74,3601.92,137739.74,61898.24,0.45,40.6943,-73.9249
81,Accountant,Private,Entry,Irvine,California,70000.0,57271.58,34.67,62406.0,9010.54,80.83,30.55,125.75,45544.0,71416.54,4269.36,141416.54,61540.94,0.44,33.6772,-117.7738
82,Accountant,Private,Entry,Columbia,Maryland,65500.0,46054.0928,25.01,45018.0,6001.22,75.44,18.15,101.12,45544.0,51019.22,2865.48,116519.22,48919.57,0.42,39.2004,-76.859
83,Accountant,Private,Entry,Longmont,Colorado,57500.0,49324.152,22.57,40626.0,5740.88,80.83,15.16,108.3,45544.0,46366.88,2607.24,103866.88,51931.39,0.5,40.1686,-105.1005
84,Accountant,Private,Entry,Little Rock,Arkansas,51000.0,40078.72,19.74,35532.0,3854.67,80.01,11.74,88.0,45544.0,39386.67,2228.04,90386.67,42306.76,0.47,34.7256,-92.3577
85,Accountant,Private,Entry,Middlebury,Vermont,29600.0,52079.564,36.46,65628.0,7073.12,82.78,22.29,114.35,45544.0,72701.12,3400.68,102301.12,55480.24,0.54,,
86,Accountant,Private,Entry,Douglas,Georgia,52500.0,41854.936,23.66,42588.0,5285.46,80.83,13.49,91.9,45544.0,47873.46,2426.88,100373.46,44281.82,0.44,31.5065,-82.8544
87,Accountant,Private,Entry,Randolph,New Jersey,64000.0,47092.496,31.19,56142.0,8059.16,82.79,19.49,103.4,45544.0,64201.16,3098.4,128201.16,50190.9,0.39,,
88,Accountant,Private,Entry,Dayton,Ohio,57000.0,40260.896,18.88,33984.0,4054.52,80.83,15.98,88.4,45544.0,38038.52,2695.8,95038.52,42956.7,0.45,39.7805,-84.2003
89,Accountant,Private,Entry,Hasbrouck Heights,New Jersey,73000.0,47092.496,31.19,56142.0,8059.16,82.79,19.49,103.4,45544.0,64201.16,3098.4,137201.16,50190.9,0.37,40.8618,-74.0741
90,Accountant,Private,Entry,Auburn,Alabama,80000.0,41854.936,20.67,37206.0,4021.31,74.1,14.91,91.9,45544.0,41227.31,2499.48,121227.31,44354.42,0.37,32.6087,-85.4903
91,Accountant,Private,Entry,Galena,Kansas,80000.0,39782.684,22.91,41238.0,4429.11,80.83,13.85,87.35,45544.0,45667.11,2465.76,125667.11,42248.44,0.34,37.0751,-94.6354
92,Accountant,Private,Entry,Farmington,Utah,51500.0,45525.7824,24.79,44622.0,4143.37,69.01,11.02,99.96,45544.0,48765.37,2018.28,100265.37,47544.06,0.47,40.9845,-111.9065
93,Accountant,Private,Entry,Savannah,Georgia,53000.0,44314.312,23.66,42588.0,5285.46,80.83,13.49,97.3,45544.0,47873.46,2426.88,100873.46,46741.19,0.46,32.0286,-81.1821
94,Accountant,Private,Entry,Bensenville,Illinois,49500.0,40106.0464,15.02,27036.0,7041.83,80.83,15.99,88.06,45544.0,34077.83,2696.88,83577.83,42802.93,0.51,41.9579,-87.9442
95,Accountant,Private,Entry,Charlotte,North Carolina,58500.0,44587.576,33.02,59436.0,5658.26,80.83,13.49,97.9,45544.0,65094.26,2426.88,123594.26,47014.46,0.38,35.2083,-80.8303
96,Accountant,Private,Entry,New York,New York,59500.0,58296.32,33.56,60408.0,10831.74,80.83,24.37,128.0,45544.0,71239.74,3601.92,130739.74,61898.24,0.47,40.6943,-73.9249
97,Accountant,Private,Entry,Austin,Texas,55000.0,48549.904,41.81,75258.0,6365.46,80.83,15.32,106.6,45544.0,81623.46,2624.52,136623.46,51174.42,0.37,30.3005,-97.7522
98,Accountant,Private,Entry,Seguin,Texas,64000.0,41467.812,27.45,49410.0,5151.54,80.83,15.32,91.05,45544.0,54561.54,2624.52,118561.54,44092.33,0.37,29.5891,-97.9676
99,Accountant,Private,Entry,Ruston,Louisiana,49500.0,40351.984,19.57,35226.0,3973.93,80.83,11.7,88.6,45544.0,39199.93,2233.56,88699.93,42585.54,0.48,32.5328,-92.6363
100,Accountant,Private,Entry,Stockton,California,29680.0,51737.984,21.3,38340.0,6599.67,80.83,30.55,113.6,45544.0,44939.67,4269.36,74619.67,56007.34,0.75,37.9765,-121.3109
101,Accountant,Private,Entry,Houston,Texas,56500.0,43631.152,31.12,56016.0,5245.46,80.83,15.32,95.8,45544.0,61261.46,2624.52,117761.46,46255.67,0.39,29.786,-95.3885
102,Accountant,Private,Entry,Brownsville,Texas,51000.0,39987.632,27.45,49410.0,3140.07,80.83,15.32,87.8,45544.0,52550.07,2624.52,103550.07,42612.15,0.41,25.9975,-97.458
103,Accountant,Private,Entry,Mount Kisco,New York,21260.0,44195.8976,33.56,60408.0,6758.4,80.83,24.37,97.04,45544.0,67166.4,3601.92,88426.4,47797.82,0.54,41.2016,-73.7281
104,Accountant,Private,Entry,Mechanicsburg,Pennsylvania,65000.0,42560.868,23.31,41958.0,6024.26,84.33,17.6,93.45,45544.0,47982.26,2912.76,112982.26,45473.63,0.4,40.2115,-77.006
105,Accountant,Private,Entry,Fredericksburg,Virginia,64500.0,43134.7224,30.5,54900.0,5590.44,86.7,14.46,94.71,45544.0,60490.44,2602.08,124990.44,45736.8,0.37,38.2992,-77.4872
106,Accountant,Private,Entry,Aberdeen,Washington,32750.0,44450.944,31.45,56610.0,6659.49,80.83,11.83,97.6,45544.0,63269.49,2247.6,96019.49,46698.54,0.49,46.9757,-123.8094
107,Accountant,Private,Entry,Benbrook,Texas,52500.0,41467.812,27.45,49410.0,5151.54,80.83,15.32,91.05,45544.0,54561.54,2624.52,107061.54,44092.33,0.41,32.6788,-97.4637
108,Accountant,Private,Entry,Troy,Ohio,74000.0,40443.072,20.56,37008.0,4054.52,80.83,15.98,88.8,45544.0,41062.52,2695.8,115062.52,43138.87,0.37,40.0437,-84.2186
109,Accountant,Private,Entry,Dublin,California,125000.0,57271.58,40.28,72504.0,7036.89,80.83,30.55,125.75,45544.0,79540.89,4269.36,204540.89,61540.94,0.3,37.7161,-121.8963
110,Accountant,Private,Entry,New York,New York,55000.0,58296.32,33.56,60408.0,10831.74,80.83,24.37,128.0,45544.0,71239.74,3601.92,126239.74,61898.24,0.49,40.6943,-73.9249
111,Accountant,Private,Entry,San Rafael,California,25000.0,57271.58,42.56,76608.0,7036.89,80.83,30.55,125.75,45544.0,83644.89,4269.36,108644.89,61540.94,0.57,37.9905,-122.5221
112,Accountant,Private,Entry,San Diego,California,27000.0,62030.928,41.6,74880.0,6210.03,80.83,30.55,136.2,45544.0,81090.03,4269.36,108090.03,66300.29,0.61,32.8313,-117.1222
113,Accountant,Private,Entry,Little Rock,Arkansas,67500.0,40078.72,19.74,35532.0,3854.67,80.01,11.74,88.0,45544.0,39386.67,2228.04,106886.67,42306.76,0.4,34.7256,-92.3577
114,Accountant,Private,Entry,Terrell,Texas,4000.0,41467.812,27.45,49410.0,5151.54,80.83,15.32,91.05,45544.0,54561.54,2624.52,58561.54,44092.33,0.75,32.734,-96.2931
115,Accountant,Private,Entry,Richmond,Virginia,64000.0,45179.648,23.34,42012.0,4570.38,86.7,14.46,99.2,45544.0,46582.38,2602.08,110582.38,47781.73,0.43,37.5295,-77.4756
116,Accountant,Private,Entry,Great River,New York,65000.0,44195.8976,33.56,60408.0,6758.4,80.83,24.37,97.04,45544.0,67166.4,3601.92,132166.4,47797.82,0.36,40.7137,-73.1628
117,Accountant,Private,Entry,Los Gatos,California,34295.0,57271.58,44.61,80298.0,7036.89,80.83,30.55,125.75,45544.0,87334.89,4269.36,121629.89,61540.94,0.51,37.2304,-121.9562
118,Accountant,Private,Entry,Reston,Virginia,65000.0,43134.7224,30.21,54378.0,5590.44,86.7,14.46,94.71,45544.0,59968.44,2602.08,124968.44,45736.8,0.37,38.9497,-77.3461
119,Accountant,Private,Entry,Nashville,Tennessee,5000.0,45589.544,30.46,54828.0,5088.14,80.83,13.04,100.1,45544.0,59916.14,2378.28,64916.14,47967.82,0.74,36.1715,-86.7842
120,Accountant,Private,Entry,Brookfield,Wisconsin,72500.0,41608.9984,19.71,35478.0,4333.44,80.83,16.31,91.36,45544.0,39811.44,2731.44,112311.44,44340.44,0.39,43.064,-88.1231
121,Accountant,Private,Entry,Hyattsville,Maryland,65000.0,46054.0928,25.19,45342.0,6001.22,75.44,18.15,101.12,45544.0,51343.22,2865.48,116343.22,48919.57,0.42,38.9613,-76.9548
122,Accountant,Private,Entry,Seattle,Washington,130000.0,56747.824,43.13,77634.0,10361.54,80.83,11.83,124.6,45544.0,87995.54,2247.6,217995.54,58995.42,0.27,47.6211,-122.3244
123,Accountant,Private,Entry,Portland,Maine,73000.0,51464.72,19.13,34434.0,7073.12,80.83,26.29,113.0,45544.0,41507.12,3809.28,114507.12,55274.0,0.48,43.6773,-70.2715
124,Accountant,Private,Entry,Denver,Colorado,54000.0,51054.824,36.45,65610.0,6740.21,80.83,15.16,112.1,45544.0,72350.21,2607.24,126350.21,53662.06,0.42,39.762,-104.8758
125,Accountant,Private,Entry,Gainesville,Florida,75500.0,44314.312,31.24,56232.0,4977.02,83.25,14.2,97.3,45544.0,61209.02,2532.6,136709.02,46846.91,0.34,29.6804,-82.3459
126,Accountant,Private,Entry,Austin,Texas,60500.0,48549.904,41.81,75258.0,6365.46,80.83,15.32,106.6,45544.0,81623.46,2624.52,142123.46,51174.42,0.36,30.3005,-97.7522
127,Accountant,Private,Entry,Buffalo,New York,53500.0,44314.312,19.21,34578.0,4174.42,80.83,24.37,97.3,45544.0,38752.42,3601.92,92252.42,47916.23,0.52,42.9018,-78.8487
128,Accountant,Private,Entry,Scottsdale,Arizona,84000.0,45721.6216,33.08,59544.0,6794.99,75.34,15.2,100.39,45544.0,66338.99,2545.68,150338.99,48267.3,0.32,33.6872,-111.8651
129,Accountant,Private,Entry,Milwaukee,Wisconsin,27000.0,42720.272,23.29,41922.0,3992.97,80.83,16.31,93.8,45544.0,45914.97,2731.44,72914.97,45451.71,0.62,43.0642,-87.9675
130,Accountant,Private,Entry,Aurora,Illinois,32440.0,40106.0464,22.7,40860.0,5763.98,80.83,15.99,88.06,45544.0,46623.98,2696.88,79063.98,42802.93,0.54,41.7638,-88.2902
131,Accountant,Private,Entry,Geneva,New York,46500.0,44195.8976,33.56,60408.0,6758.4,80.83,24.37,97.04,45544.0,67166.4,3601.92,113666.4,47797.82,0.42,42.8645,-76.9826
132,Accountant,Private,Entry,Newport News,Virginia,56500.0,43134.7224,18.48,33264.0,4082.0,86.7,14.46,94.71,45544.0,37346.0,2602.08,93846.0,45736.8,0.49,37.1051,-76.5185
133,Accountant,Private,Entry,Fort Morgan,Colorado,72500.0,49324.152,25.38,45684.0,5740.88,80.83,15.16,108.3,45544.0,51424.88,2607.24,123924.88,51931.39,0.42,40.2537,-103.7903
134,Accountant,Private,Entry,Denver,Colorado,23250.0,51054.824,36.45,65610.0,6740.21,80.83,15.16,112.1,45544.0,72350.21,2607.24,95600.21,53662.06,0.56,39.762,-104.8758
135,Accountant,Private,Entry,Covington,Louisiana,98000.0,40351.984,19.57,35226.0,3973.93,80.83,11.7,88.6,45544.0,39199.93,2233.56,137199.93,42585.54,0.31,30.481,-90.1122
136,Accountant,Private,Entry,Ramsey,Minnesota,67500.0,44683.2184,25.42,45756.0,5231.86,68.66,14.05,98.11,45544.0,50987.86,2341.32,118487.86,47024.54,0.4,45.2617,-93.4494
137,Accountant,Private,Entry,Dallas,Texas,68500.0,44860.84,26.83,48294.0,5360.48,80.83,15.32,98.5,45544.0,53654.48,2624.52,122154.48,47485.36,0.39,32.7935,-96.7667
138,Accountant,Private,Entry,Walker,Michigan,93000.0,40916.7296,21.42,38556.0,3880.78,80.83,18.41,89.84,45544.0,42436.78,2958.24,135436.78,43874.97,0.32,42.9853,-85.7446
139,Accountant,Private,Entry,Santa Rosa,California,48480.0,64535.848,27.11,48798.0,6403.12,80.83,30.55,141.7,45544.0,55201.12,4269.36,103681.12,68805.21,0.66,38.4458,-122.7067
140,Accountant,Private,Entry,Pennsauken,New Jersey,67500.0,47092.496,31.19,56142.0,8059.16,82.79,19.49,103.4,45544.0,64201.16,3098.4,131701.16,50190.9,0.38,,
141,Accountant,Private,Entry,Reading,Pennsylvania,52000.0,43722.24,28.6,51480.0,6024.26,84.33,17.6,96.0,45544.0,57504.26,2912.76,109504.26,46635.0,0.43,40.34,-75.9267
142,Accountant,Private,Entry,Lockhart,Texas,55000.0,41467.812,27.45,49410.0,5151.54,80.83,15.32,91.05,45544.0,54561.54,2624.52,109561.54,44092.33,0.4,29.8785,-97.6831
143,Accountant,Private,Entry,Tampa,Florida,32000.0,46181.616,31.47,56646.0,5623.94,83.25,14.2,101.4,45544.0,62269.94,2532.6,94269.94,48714.22,0.52,27.9945,-82.4447
144,Accountant,Private,Entry,Gilbert,Arizona,57000.0,45721.6216,23.33,41994.0,7393.71,75.34,15.2,100.39,45544.0,49387.71,2545.68,106387.71,48267.3,0.45,33.31,-111.7463
145,Accountant,Private,Entry,Virginia Beach,Virginia,22500.0,45088.56,23.17,41706.0,5225.73,86.7,14.46,99.0,45544.0,46931.73,2602.08,69431.73,47690.64,0.69,36.7335,-76.0435
146,Accountant,Private,Entry,Garner,North Carolina,54000.0,41827.6096,27.48,49464.0,4979.85,80.83,13.49,91.84,45544.0,54443.85,2426.88,108443.85,44254.49,0.41,35.6936,-78.6181
147,Accountant,Private,Entry,Elizabeth,New Jersey,58500.0,47092.496,31.19,56142.0,8059.16,82.79,19.49,103.4,45544.0,64201.16,3098.4,122701.16,50190.9,0.41,40.6658,-74.1913
148,Accountant,Private,Entry,Union,New Jersey,58000.0,47092.496,31.19,56142.0,8059.16,82.79,19.49,103.4,45544.0,64201.16,3098.4,122201.16,50190.9,0.41,40.6966,-74.2693
149,Accountant,Private,Entry,Wise,Virginia,63000.0,43134.7224,28.91,52038.0,5590.44,86.7,14.46,94.71,45544.0,57628.44,2602.08,120628.44,45736.8,0.38,36.9767,-82.5809
150,Accountant,Private,Entry,Reserve,Louisiana,5000.0,40351.984,19.57,35226.0,3973.93,80.83,11.7,88.6,45544.0,39199.93,2233.56,44199.93,42585.54,0.96,30.0741,-90.5557
151,Accountant,Private,Entry,Gainesville,Florida,28975.0,44314.312,31.24,56232.0,4977.02,83.25,14.2,97.3,45544.0,61209.02,2532.6,90184.02,46846.91,0.52,29.6804,-82.3459
152,Accountant,Private,Entry,Vancouver,Washington,23000.0,48741.1888,27.34,49212.0,4996.3,80.83,11.83,107.02,45544.0,54208.3,2247.6,77208.3,50988.79,0.66,45.6366,-122.5967
153,Accountant,Private,Entry,Burlington,Massachusetts,65000.0,52170.652,64.11,115398.0,6062.35,93.6,31.22,114.55,45544.0,121460.35,4494.96,186460.35,56665.61,0.3,,
154,Accountant,Private,Entry,Seattle,Washington,122500.0,56747.824,43.13,77634.0,10361.54,80.83,11.83,124.6,45544.0,87995.54,2247.6,210495.54,58995.42,0.28,47.6211,-122.3244
155,Accountant,Private,Entry,Jacksonville Beach,Florida,55000.0,46117.8544,31.24,56232.0,4977.02,83.25,14.2,101.26,45544.0,61209.02,2532.6,116209.02,48650.45,0.42,30.2782,-81.4045
156,Accountant,Private,Entry,Glendale,California,61000.0,57271.58,38.47,69246.0,6851.36,80.83,30.55,125.75,45544.0,76097.36,4269.36,137097.36,61540.94,0.45,34.1819,-118.2468
157,Accountant,Private,Entry,Houston,Texas,57500.0,43631.152,31.12,56016.0,5245.46,80.83,15.32,95.8,45544.0,61261.46,2624.52,118761.46,46255.67,0.39,29.786,-95.3885
158,Accountant,Private,Entry,Shreveport,Louisiana,48500.0,39076.752,19.57,35226.0,3443.5,80.83,11.7,85.8,45544.0,38669.5,2233.56,87169.5,41310.31,0.47,32.4653,-93.7955
159,Accountant,Private,Entry,Marietta,Georgia,57000.0,41854.936,19.33,34794.0,5285.46,80.83,13.49,91.9,45544.0,40079.46,2426.88,97079.46,44281.82,0.46,33.9533,-84.5422
160,Accountant,Private,Entry,Tampa,Florida,60000.0,46181.616,31.47,56646.0,5623.94,83.25,14.2,101.4,45544.0,62269.94,2532.6,122269.94,48714.22,0.4,27.9945,-82.4447
161,Accountant,Private,Entry,Fort Lauderdale,Florida,56500.0,46117.8544,32.61,58698.0,5474.08,83.25,14.2,101.26,45544.0,64172.08,2532.6,120672.08,48650.45,0.4,26.1412,-80.1464
162,Accountant,Private,Entry,Paramus,New Jersey,59500.0,47092.496,33.85,60930.0,8059.16,82.79,19.49,103.4,45544.0,68989.16,3098.4,128489.16,50190.9,0.39,40.9455,-74.0712
163,Accountant,Private,Entry,Detroit,Michigan,23500.0,42447.008,26.3,47340.0,4267.32,80.83,18.41,93.2,45544.0,51607.32,2958.24,75107.32,45405.25,0.6,42.3834,-83.1024
164,Accountant,Private,Entry,Anaheim,California,150000.0,57271.58,33.12,59616.0,5938.78,80.83,30.55,125.75,45544.0,65554.78,4269.36,215554.78,61540.94,0.29,33.839,-117.8574
165,Accountant,Private,Entry,Elmwood,Wisconsin,87500.0,41608.9984,21.02,37836.0,4333.44,80.83,16.31,91.36,45544.0,42169.44,2731.44,129669.44,44340.44,0.34,44.78,-92.1491
166,Accountant,Private,Entry,Gulf Shores,Alabama,55000.0,40702.6728,20.67,37206.0,4021.31,74.1,14.91,89.37,45544.0,41227.31,2499.48,96227.31,43202.15,0.45,30.2764,-87.7017
167,Accountant,Private,Entry,West Palm Beach,Florida,24500.0,46117.8544,36.56,65808.0,4977.02,83.25,14.2,101.26,45544.0,70785.02,2532.6,95285.02,48650.45,0.51,26.7469,-80.132
168,Accountant,Private,Entry,Plainview,New York,57500.0,44195.8976,33.56,60408.0,6758.4,80.83,24.37,97.04,45544.0,67166.4,3601.92,124666.4,47797.82,0.38,40.7832,-73.4732
169,Accountant,Private,Entry,Atlanta,Georgia,70000.0,45680.632,34.79,62622.0,7289.35,80.83,13.49,100.3,45544.0,69911.35,2426.88,139911.35,48107.51,0.34,33.7628,-84.422
170,Accountant,Private,Entry,Torrance,California,70000.0,57271.58,36.61,65898.0,7036.89,80.83,30.55,125.75,45544.0,72934.89,4269.36,142934.89,61540.94,0.43,33.8346,-118.3416
171,Accountant,Private,Entry,Bakersfield,California,34475.0,46864.776,26.53,47754.0,5216.85,80.83,30.55,102.9,45544.0,52970.85,4269.36,87445.85,51134.14,0.58,35.3529,-119.0359
172,Accountant,Private,Entry,Lakeland,Florida,42000.0,43904.416,31.24,56232.0,4977.02,83.25,14.2,96.4,45544.0,61209.02,2532.6,103209.02,46437.02,0.45,28.0557,-81.9545
173,Accountant,Private,Entry,Nederland,Texas,66000.0,41467.812,27.45,49410.0,5151.54,80.83,15.32,91.05,45544.0,54561.54,2624.52,120561.54,44092.33,0.37,29.9707,-94.0015
174,Accountant,Private,Entry,Kapolei,Hawaii,112500.0,70397.3608,37.48,67464.0,5029.32,63.18,42.34,154.57,45544.0,72493.32,5330.88,184993.32,75728.24,0.41,21.3399,-158.0677
175,Accountant,Private,Entry,Houston,Texas,65000.0,43631.152,31.12,56016.0,5245.46,80.83,15.32,95.8,45544.0,61261.46,2624.52,126261.46,46255.67,0.37,29.786,-95.3885
176,Accountant,Private,Entry,San Antonio,Texas,57500.0,42219.288,27.34,49212.0,4251.07,80.83,15.32,92.7,45544.0,53463.07,2624.52,110963.07,44843.81,0.4,29.4632,-98.5238
177,Accountant,Private,Entry,Pennsauken,New Jersey,59000.0,47092.496,31.19,56142.0,8059.16,82.79,19.49,103.4,45544.0,64201.16,3098.4,123201.16,50190.9,0.41,,
178,Accountant,Private,Entry,Wendell,North Carolina,53500.0,41827.6096,27.48,49464.0,4979.85,80.83,13.49,91.84,45544.0,54443.85,2426.88,107943.85,44254.49,0.41,35.7819,-78.3952
179,Accountant,Private,Entry,Irvington,New Jersey,60000.0,47092.496,31.19,56142.0,8059.16,82.79,19.49,103.4,45544.0,64201.16,3098.4,124201.16,50190.9,0.4,,
180,Accountant,Private,Entry,Chicago,Illinois,66000.0,45589.544,34.16,61488.0,8319.68,80.83,15.99,100.1,45544.0,69807.68,2696.88,135807.68,48286.42,0.36,41.8375,-87.6866
181,Accountant,Private,Entry,Honolulu,Hawaii,22500.0,71959.52,37.48,67464.0,5029.32,63.18,42.34,158.0,45544.0,72493.32,5330.88,94993.32,77290.4,0.81,21.3294,-157.846
182,Accountant,Private,Entry,Southfield,Michigan,42500.0,40916.7296,20.47,36846.0,3880.78,80.83,18.41,89.84,45544.0,40726.78,2958.24,83226.78,43874.97,0.53,42.4765,-83.2605
183,Accountant,Private,Entry,Alpharetta,Georgia,116500.0,41854.936,23.66,42588.0,5285.46,80.83,13.49,91.9,45544.0,47873.46,2426.88,164373.46,44281.82,0.27,34.0704,-84.2738
184,Accountant,Private,Entry,Stafford,Texas,53000.0,41467.812,27.45,49410.0,5151.54,80.83,15.32,91.05,45544.0,54561.54,2624.52,107561.54,44092.33,0.41,29.6271,-95.5654
185,Accountant,Private,Entry,Brea,California,55000.0,57271.58,29.26,52668.0,7036.89,80.83,30.55,125.75,45544.0,59704.89,4269.36,114704.89,61540.94,0.54,33.9254,-117.8655
186,Accountant,Private,Entry,West Des Moines,Iowa,70000.0,40752.7712,21.33,38394.0,3640.73,75.86,12.43,89.48,45544.0,42034.73,2252.76,112034.73,43005.53,0.38,41.5521,-93.7806
187,Accountant,Private,Entry,Hauppauge,New York,62000.0,44195.8976,25.22,45396.0,6758.4,80.83,24.37,97.04,45544.0,52154.4,3601.92,114154.4,47797.82,0.42,40.8211,-73.2109
188,Accountant,Private,Entry,Dayton,Ohio,48500.0,40260.896,18.88,33984.0,4054.52,80.83,15.98,88.4,45544.0,38038.52,2695.8,86538.52,42956.7,0.5,39.7805,-84.2003
189,Accountant,Private,Entry,Pawcatuck,Connecticut,56000.0,49442.5664,27.62,49716.0,7073.12,72.47,28.16,108.56,45544.0,56789.12,3910.92,112789.12,53353.49,0.47,41.3774,-71.8492
190,Accountant,Private,Entry,Fort Walton Beach,Florida,72500.0,46117.8544,31.24,56232.0,4977.02,83.25,14.2,101.26,45544.0,61209.02,2532.6,133709.02,48650.45,0.36,30.4255,-86.6222
191,Accountant,Private,Entry,Cedar Rapids,Iowa,73000.0,40124.264,22.91,41238.0,3640.73,75.86,12.43,88.1,45544.0,44878.73,2252.76,117878.73,42377.02,0.36,41.9662,-91.6783
192,Accountant,Private,Entry,Red Bank,New Jersey,57500.0,47092.496,31.19,56142.0,8059.16,82.79,19.49,103.4,45544.0,64201.16,3098.4,121701.16,50190.9,0.41,40.348,-74.0672
193,Accountant,Private,Entry,Arvada,Colorado,25000.0,49324.152,22.86,41148.0,5740.88,80.83,15.16,108.3,45544.0,46888.88,2607.24,71888.88,51931.39,0.72,39.832,-105.151
194,Accountant,Private,Entry,Chico,California,82500.0,50326.12,40.28,72504.0,7036.89,80.83,30.55,110.5,45544.0,79540.89,4269.36,162040.89,54595.48,0.34,39.7578,-121.8161
195,Accountant,Private,Entry,Laguna Hills,California,68000.0,57271.58,26.93,48474.0,7036.89,80.83,30.55,125.75,45544.0,55510.89,4269.36,123510.89,61540.94,0.5,33.5918,-117.6991
196,Accountant,Private,Entry,San Clemente,California,60000.0,57271.58,40.28,72504.0,7036.89,80.83,30.55,125.75,45544.0,79540.89,4269.36,139540.89,61540.94,0.44,33.4499,-117.6102
197,Accountant,Private,Entry,Oakland,California,75000.0,57271.58,51.74,93132.0,8415.01,80.83,30.55,125.75,45544.0,101547.01,4269.36,176547.01,61540.94,0.35,37.7904,-122.2166
198,Accountant,Private,Entry,Milwaukee,Wisconsin,85000.0,42720.272,23.29,41922.0,3992.97,80.83,16.31,93.8,45544.0,45914.97,2731.44,130914.97,45451.71,0.35,43.0642,-87.9675
199,Accountant,Private,Entry,Las Vegas,Nevada,22500.0,45862.808,30.23,54414.0,5392.82,80.83,14.88,100.7,45544.0,59806.82,2577.0,82306.82,48439.81,0.59,36.2333,-115.2654
200,Accountant,Private,Entry,Austin,Texas,58000.0,48549.904,41.81,75258.0,6365.46,80.83,15.32,106.6,45544.0,81623.46,2624.52,139623.46,51174.42,0.37,30.3005,-97.7522
201,Accountant,Private,Entry,Greeley,Colorado,120000.0,48322.184,24.28,43704.0,5740.88,80.83,15.16,106.1,45544.0,49444.88,2607.24,169444.88,50929.42,0.3,40.4152,-104.7706
202,Accountant,Private,Entry,Salem,Virginia,45000.0,43134.7224,28.91,52038.0,5590.44,86.7,14.46,94.71,45544.0,57628.44,2602.08,102628.44,45736.8,0.45,37.2864,-80.0555
203,Accountant,Private,Entry,Pawcatuck,Connecticut,65000.0,49442.5664,27.62,49716.0,7073.12,72.47,28.16,108.56,45544.0,56789.12,3910.92,121789.12,53353.49,0.44,41.3774,-71.8492
204,Accountant,Private,Entry,Houston,Texas,57500.0,43631.152,31.12,56016.0,5245.46,80.83,15.32,95.8,45544.0,61261.46,2624.52,118761.46,46255.67,0.39,29.786,-95.3885
205,Accountant,Private,Entry,Atlanta,Georgia,50000.0,45680.632,34.79,62622.0,7289.35,80.83,13.49,100.3,45544.0,69911.35,2426.88,119911.35,48107.51,0.4,33.7628,-84.422
206,Accountant,Private,Entry,Tinton Falls,New Jersey,62500.0,47092.496,31.19,56142.0,8059.16,82.79,19.49,103.4,45544.0,64201.16,3098.4,126701.16,50190.9,0.4,40.2708,-74.0949
207,Accountant,Private,Entry,New Hyde Park,New York,52500.0,44195.8976,33.56,60408.0,6758.4,80.83,24.37,97.04,45544.0,67166.4,3601.92,119666.4,47797.82,0.4,40.7323,-73.6858
208,Accountant,Private,Entry,Rosenberg,Texas,52500.0,41467.812,27.45,49410.0,5151.54,80.83,15.32,91.05,45544.0,54561.54,2624.52,107061.54,44092.33,0.41,29.5456,-95.8223
209,Accountant,Private,Entry,Herndon,Virginia,65000.0,43134.7224,29.67,53406.0,5590.44,86.7,14.46,94.71,45544.0,58996.44,2602.08,123996.44,45736.8,0.37,38.9699,-77.3867
210,Accountant,Private,Entry,Doylestown,Pennsylvania,60500.0,42560.868,28.6,51480.0,6024.26,84.33,17.6,93.45,45544.0,57504.26,2912.76,118004.26,45473.63,0.39,,
211,Accountant,Private,Entry,Amityville,New York,52500.0,44195.8976,33.56,60408.0,6758.4,80.83,24.37,97.04,45544.0,67166.4,3601.92,119666.4,47797.82,0.4,40.6696,-73.4156
212,Accountant,Private,Entry,Chicago,Illinois,57500.0,45589.544,34.16,61488.0,8319.68,80.83,15.99,100.1,45544.0,69807.68,2696.88,127307.68,48286.42,0.38,41.8375,-87.6866
213,Accountant,Private,Entry,Milwaukee,Wisconsin,92500.0,42720.272,23.29,41922.0,3992.97,80.83,16.31,93.8,45544.0,45914.97,2731.44,138414.97,45451.71,0.33,43.0642,-87.9675
214,Accountant,Private,Entry,Hilton Head Island,South Carolina,59000.0,49825.136,27.08,48744.0,7073.12,74.17,13.87,109.4,45544.0,55817.12,2388.0,114817.12,52213.14,0.45,32.1896,-80.7499
215,Accountant,Private,Entry,Hackensack,New Jersey,51500.0,47092.496,31.19,56142.0,8059.16,82.79,19.49,103.4,45544.0,64201.16,3098.4,115701.16,50190.9,0.43,40.8891,-74.0462
216,Accountant,Private,Entry,Beverly Hills,California,65000.0,57271.58,68.14,122652.0,7036.89,80.83,30.55,125.75,45544.0,129688.89,4269.36,194688.89,61540.94,0.32,34.0786,-118.4021
217,Accountant,Private,Entry,Bloomfield,New Jersey,30500.0,47092.496,31.19,56142.0,8059.16,82.79,19.49,103.4,45544.0,64201.16,3098.4,94701.16,50190.9,0.53,,
218,Accountant,Private,Entry,Chicago,Illinois,54500.0,45589.544,34.16,61488.0,8319.68,80.83,15.99,100.1,45544.0,69807.68,2696.88,124307.68,48286.42,0.39,41.8375,-87.6866
219,Accountant,Private,Entry,Chicago,Illinois,42000.0,45589.544,34.16,61488.0,8319.68,80.83,15.99,100.1,45544.0,69807.68,2696.88,111807.68,48286.42,0.43,41.8375,-87.6866
220,Accountant,Private,Entry,Syosset,New York,70000.0,44195.8976,33.56,60408.0,6758.4,80.83,24.37,97.04,45544.0,67166.4,3601.92,137166.4,47797.82,0.35,40.8157,-73.502
221,Accountant,Private,Entry,West Jordan,Utah,62500.0,45525.7824,24.79,44622.0,4143.37,69.01,11.02,99.96,45544.0,48765.37,2018.28,111265.37,47544.06,0.43,40.6024,-112.0008
222,Accountant,Private,Entry,Portland,Oregon,5500.0,53058.76,28.45,51210.0,6557.06,72.27,14.12,116.5,45544.0,57767.06,2392.2,63267.06,55450.96,0.88,45.5371,-122.65
223,Accountant,Private,Entry,Milan,Ohio,72500.0,40443.072,20.56,37008.0,4054.52,80.83,15.98,88.8,45544.0,41062.52,2695.8,113562.52,43138.87,0.38,41.2882,-82.5994
224,Accountant,Private,Entry,Houston,Texas,19000.0,43631.152,31.12,56016.0,5245.46,80.83,15.32,95.8,45544.0,61261.46,2624.52,80261.46,46255.67,0.58,29.786,-95.3885
225,Accountant,Private,Entry,Fort Lauderdale,Florida,24500.0,46117.8544,32.61,58698.0,5474.08,83.25,14.2,101.26,45544.0,64172.08,2532.6,88672.08,48650.45,0.55,26.1412,-80.1464
226,Accountant,Private,Entry,El Reno,Oklahoma,172500.0,38366.2656,18.37,33066.0,3976.88,81.27,11.52,84.24,45544.0,37042.88,2219.4,209542.88,40585.67,0.19,35.5429,-97.966
227,Accountant,Private,Entry,Williamsville,New York,85000.0,44195.8976,33.56,60408.0,6758.4,80.83,24.37,97.04,45544.0,67166.4,3601.92,152166.4,47797.82,0.31,42.9623,-78.7418
228,Accountant,Private,Entry,Las Vegas,Nevada,76500.0,45862.808,30.23,54414.0,5392.82,80.83,14.88,100.7,45544.0,59806.82,2577.0,136306.82,48439.81,0.36,36.2333,-115.2654
229,Accountant,Private,Entry,Burleson,Texas,120000.0,41467.812,27.45,49410.0,5151.54,80.83,15.32,91.05,45544.0,54561.54,2624.52,174561.54,44092.33,0.25,32.517,-97.3344
230,Accountant,Private,Entry,Logansport,Indiana,125000.0,39759.912,20.45,36810.0,4331.59,80.83,14.42,87.3,45544.0,41141.59,2527.32,166141.59,42287.23,0.25,40.7472,-86.352
231,Accountant,Private,Entry,Pompano Beach,Florida,53000.0,46117.8544,31.24,56232.0,4977.02,83.25,14.2,101.26,45544.0,61209.02,2532.6,114209.02,48650.45,0.43,26.2428,-80.1312
232,Accountant,Private,Entry,Phoenix,Arizona,65500.0,47502.392,26.61,47898.0,5119.48,75.34,15.2,104.3,45544.0,53017.48,2545.68,118517.48,50048.07,0.42,33.5722,-112.0892
233,Accountant,Private,Entry,Eden Prairie,Minnesota,173000.0,44683.2184,25.65,46170.0,5231.86,68.66,14.05,98.11,45544.0,51401.86,2341.32,224401.86,47024.54,0.21,44.8488,-93.4595
234,Accountant,Private,Entry,,Nevada,84000.0,47229.128,26.63,47934.0,5059.37,80.83,14.88,103.7,45544.0,52993.37,2577.0,136993.37,49806.13,0.36,,
235,Accountant,Private,Entry,Nottingham,Maryland,70000.0,46054.0928,26.17,47106.0,6001.22,75.44,18.15,101.12,45544.0,53107.22,2865.48,123107.22,48919.57,0.4,,
236,Accountant,Private,Entry,Hilmar,California,81500.0,57271.58,40.28,72504.0,7036.89,80.83,30.55,125.75,45544.0,79540.89,4269.36,161040.89,61540.94,0.38,,
237,Accountant,Private,Entry,Greenwich,Connecticut,50000.0,49442.5664,50.56,91008.0,7073.12,72.47,28.16,108.56,45544.0,98081.12,3910.92,148081.12,53353.49,0.36,,
238,Accountant,Private,Entry,Washington,District of Columbia,62000.0,54698.344,52.54,94572.0,7073.12,80.83,20.27,120.1,45544.0,101645.12,3159.03,163645.12,57857.38,0.35,38.9047,-77.0163
239,Accountant,Private,Entry,Baltimore,Maryland,77500.0,48732.08,26.17,47106.0,6001.22,75.44,18.15,107.0,45544.0,53107.22,2865.48,130607.22,51597.56,0.4,39.3051,-76.6144
240,Accountant,Private,Entry,Milford,New Hampshire,60000.0,49041.7792,26.74,48132.0,7073.12,80.83,23.62,107.68,45544.0,55205.12,3520.92,115205.12,52562.7,0.46,,
241,Accountant,Private,Entry,Cincinnati,Ohio,49000.0,42082.656,18.83,33894.0,4560.93,80.83,15.98,92.4,45544.0,38454.93,2695.8,87454.93,44778.46,0.51,39.1413,-84.506
242,Accountant,Private,Entry,Arnold,Missouri,60000.0,39973.9688,21.59,38862.0,3937.23,72.8,11.57,87.77,45544.0,42799.23,2123.16,102799.23,42097.13,0.41,38.4297,-90.3733
243,Accountant,Private,Entry,Zionsville,Indiana,49000.0,39759.912,20.45,36810.0,4331.59,80.83,14.42,87.3,45544.0,41141.59,2527.32,90141.59,42287.23,0.47,39.9897,-86.3182
244,Accountant,Private,Entry,Conroe,Texas,67500.0,41467.812,25.88,46584.0,5151.54,80.83,15.32,91.05,45544.0,51735.54,2624.52,119235.54,44092.33,0.37,30.3238,-95.4824
245,Accountant,Private,Entry,Scottsdale,Arizona,103000.0,45721.6216,33.08,59544.0,6794.99,75.34,15.2,100.39,45544.0,66338.99,2545.68,169338.99,48267.3,0.29,33.6872,-111.8651
246,Accountant,Private,Entry,Reston,Virginia,56500.0,43134.7224,30.21,54378.0,5590.44,86.7,14.46,94.71,45544.0,59968.44,2602.08,116468.44,45736.8,0.39,38.9497,-77.3461
247,Accountant,Private,Entry,Sugar Land,Texas,75000.0,41467.812,30.15,54270.0,5151.54,80.83,15.32,91.05,45544.0,59421.54,2624.52,134421.54,44092.33,0.33,29.5935,-95.6358
248,Accountant,Private,Entry,Phoenix,Arizona,69500.0,47502.392,26.61,47898.0,5119.48,75.34,15.2,104.3,45544.0,53017.48,2545.68,122517.48,50048.07,0.41,33.5722,-112.0892
249,Accountant,Private,Entry,Tulsa,Oklahoma,54500.0,39486.648,15.61,28098.0,3561.39,81.27,11.52,86.7,45544.0,31659.39,2219.4,86159.39,41706.05,0.48,36.1283,-95.9042
250,Accountant,Private,Entry,Palo Alto,California,60500.0,57271.58,87.75,157950.0,7036.89,80.83,30.55,125.75,45544.0,164986.89,4269.36,225486.89,61540.94,0.27,37.3905,-122.1468
251,Accountant,Private,Entry,Washington,District of Columbia,63500.0,54698.344,52.54,94572.0,7073.12,80.83,20.27,120.1,45544.0,101645.12,3159.03,165145.12,57857.38,0.35,38.9047,-77.0163
252,Accountant,Private,Entry,Tucson,Arizona,62500.0,44496.488,19.59,35262.0,3896.09,75.34,15.2,97.7,45544.0,39158.09,2545.68,101658.09,47042.17,0.46,32.1541,-110.8787
253,Accountant,Private,Entry,Pittsburgh,Pennsylvania,68000.0,42401.464,25.92,46656.0,5205.47,84.33,17.6,93.1,45544.0,51861.47,2912.76,119861.47,45314.22,0.38,40.4397,-79.9763
254,Accountant,Private,Entry,Louisville,Kentucky,58000.0,41718.304,19.71,35478.0,4469.83,79.56,13.28,91.6,45544.0,39947.83,2388.96,97947.83,44107.26,0.45,38.1663,-85.6485
255,Accountant,Private,Entry,Wilton Manors,Florida,63000.0,46117.8544,31.24,56232.0,4977.02,83.25,14.2,101.26,45544.0,61209.02,2532.6,124209.02,48650.45,0.39,26.1593,-80.1395
256,Accountant,Private,Entry,State College,Pennsylvania,110000.0,45452.912,28.6,51480.0,6024.26,84.33,17.6,99.8,45544.0,57504.26,2912.76,167504.26,48365.67,0.29,40.7909,-77.8567
257,Accountant,Private,Entry,Vienna,Ohio,53000.0,40443.072,20.56,37008.0,4054.52,80.83,15.98,88.8,45544.0,41062.52,2695.8,94062.52,43138.87,0.46,,
258,Accountant,Private,Entry,Allentown,Pennsylvania,17000.0,45043.016,28.6,51480.0,6024.26,84.33,17.6,98.9,45544.0,57504.26,2912.76,74504.26,47955.78,0.64,40.5961,-75.4756
259,Accountant,Private,Entry,Columbus,Ohio,93500.0,42765.816,21.28,38304.0,4562.82,80.83,15.98,93.9,45544.0,42866.82,2695.8,136366.82,45461.62,0.33,39.9862,-82.9855
260,Accountant,Private,Entry,Chicago,Illinois,66000.0,45589.544,34.16,61488.0,8319.68,80.83,15.99,100.1,45544.0,69807.68,2696.88,135807.68,48286.42,0.36,41.8375,-87.6866
261,Accountant,Private,Entry,Gardnerville,Nevada,64500.0,47229.128,26.63,47934.0,5059.37,80.83,14.88,103.7,45544.0,52993.37,2577.0,117493.37,49806.13,0.42,38.939,-119.7369
262,Accountant,Private,Entry,Bellevue,Washington,85000.0,48741.1888,50.16,90288.0,6659.49,80.83,11.83,107.02,45544.0,96947.49,2247.6,181947.49,50988.79,0.28,47.5951,-122.1535
263,Accountant,Private,Entry,Fort Lauderdale,Florida,60000.0,46117.8544,32.61,58698.0,5474.08,83.25,14.2,101.26,45544.0,64172.08,2532.6,124172.08,48650.45,0.39,26.1412,-80.1464
264,Accountant,Private,Entry,Arecibo,Puerto Rico,35500.0,51851.844,36.46,65628.0,7073.12,80.83,20.27,113.85,45544.0,72701.12,3159.03,108201.12,55010.88,0.51,18.4491,-66.7387
265,Accountant,Private,Entry,Minneapolis,Minnesota,70000.0,48003.376,30.87,55566.0,5694.89,68.66,14.05,105.4,45544.0,61260.89,2341.32,131260.89,50344.7,0.38,44.9635,-93.2678
266,Accountant,Private,Entry,Dallas,Texas,20000.0,44860.84,26.83,48294.0,5360.48,80.83,15.32,98.5,45544.0,53654.48,2624.52,73654.48,47485.36,0.64,32.7935,-96.7667
267,Accountant,Private,Entry,Phoenix,Arizona,95000.0,47502.392,26.61,47898.0,5119.48,75.34,15.2,104.3,45544.0,53017.48,2545.68,148017.48,50048.07,0.34,33.5722,-112.0892
268,Accountant,Private,Entry,Miami,Florida,93000.0,50143.944,49.18,88524.0,4541.57,83.25,14.2,110.1,45544.0,93065.57,2532.6,186065.57,52676.54,0.28,25.784,-80.2101
269,Accountant,Private,Entry,Baton Rouge,Louisiana,97500.0,41490.584,20.05,36090.0,3786.25,80.83,11.7,91.1,45544.0,39876.25,2233.56,137376.25,43724.14,0.32,30.442,-91.1311
270,Accountant,Private,Entry,Lawrence,Kansas,80000.0,41718.304,22.91,41238.0,4429.11,80.83,13.85,91.6,45544.0,45667.11,2465.76,125667.11,44184.06,0.35,38.9597,-95.2642
271,Accountant,Private,Entry,Compton,California,24500.0,57271.58,40.28,72504.0,7036.89,80.83,30.55,125.75,45544.0,79540.89,4269.36,104040.89,61540.94,0.59,33.893,-118.2274
272,Accountant,Private,Entry,Chicago,Illinois,60000.0,45589.544,34.16,61488.0,8319.68,80.83,15.99,100.1,45544.0,69807.68,2696.88,129807.68,48286.42,0.37,41.8375,-87.6866
273,Accountant,Private,Entry,Somerville,New Jersey,57000.0,47092.496,31.19,56142.0,8059.16,82.79,19.49,103.4,45544.0,64201.16,3098.4,121201.16,50190.9,0.41,40.5696,-74.6092
274,Accountant,Private,Entry,Phoenix,Arizona,59000.0,47502.392,26.61,47898.0,5119.48,75.34,15.2,104.3,45544.0,53017.48,2545.68,112017.48,50048.07,0.45,33.5722,-112.0892
275,Accountant,Private,Entry,Salt Lake City,Utah,60500.0,48231.096,26.96,48528.0,4143.37,69.01,11.02,105.9,45544.0,52671.37,2018.28,113171.37,50249.38,0.44,40.7776,-111.9311
276,Accountant,Private,Entry,High Point,North Carolina,50500.0,41827.6096,27.48,49464.0,4979.85,80.83,13.49,91.84,45544.0,54443.85,2426.88,104943.85,44254.49,0.42,35.991,-79.9937
277,Accountant,Private,Entry,Moore,Oklahoma,35000.0,38366.2656,18.37,33066.0,3976.88,81.27,11.52,84.24,45544.0,37042.88,2219.4,72042.88,40585.67,0.56,35.3293,-97.4757
278,Accountant,Private,Entry,West Sacramento,California,69500.0,57271.58,40.28,72504.0,7036.89,80.83,30.55,125.75,45544.0,79540.89,4269.36,149040.89,61540.94,0.41,38.5557,-121.5505
279,Accountant,Private,Entry,Long Island City,New York,70000.0,44195.8976,33.56,60408.0,6758.4,80.83,24.37,97.04,45544.0,67166.4,3601.92,137166.4,47797.82,0.35,,
280,Accountant,Private,Entry,Houston,Texas,64500.0,43631.152,31.12,56016.0,5245.46,80.83,15.32,95.8,45544.0,61261.46,2624.52,125761.46,46255.67,0.37,29.786,-95.3885
281,Accountant,Private,Entry,Omaha,Nebraska,53000.0,42310.376,24.26,43668.0,4094.4,80.83,10.78,92.9,45544.0,47762.4,2134.2,100762.4,44444.58,0.44,41.2627,-96.0529
282,Accountant,Private,Entry,Fayetteville,Georgia,47500.0,41854.936,23.66,42588.0,5285.46,80.83,13.49,91.9,45544.0,47873.46,2426.88,95373.46,44281.82,0.46,33.4501,-84.471
283,Accountant,Private,Entry,Irving,Texas,63000.0,41467.812,28.59,51462.0,5115.9,80.83,15.32,91.05,45544.0,56577.9,2624.52,119577.9,44092.33,0.37,32.8583,-96.9702
284,Accountant,Private,Entry,Los Angeles,California,57500.0,64034.864,49.02,88236.0,6877.72,80.83,30.55,140.6,45544.0,95113.72,4269.36,152613.72,68304.22,0.45,34.1141,-118.4068
285,Accountant,Private,Entry,Grand Rapids,Michigan,95000.0,42674.728,22.56,40608.0,3494.24,80.83,18.41,93.7,45544.0,44102.24,2958.24,139102.24,45632.97,0.33,42.9619,-85.6562
286,Accountant,Private,Entry,Hughson,California,65000.0,57271.58,40.28,72504.0,7036.89,80.83,30.55,125.75,45544.0,79540.89,4269.36,144540.89,61540.94,0.43,37.602,-120.866
287,Accountant,Private,Entry,Houston,Texas,60000.0,43631.152,31.12,56016.0,5245.46,80.83,15.32,95.8,45544.0,61261.46,2624.52,121261.46,46255.67,0.38,29.786,-95.3885
288,Accountant,Private,Entry,Aiken,South Carolina,85500.0,42542.6504,27.08,48744.0,7073.12,74.17,13.87,93.41,45544.0,55817.12,2388.0,141317.12,44930.65,0.32,33.5303,-81.7271
289,Accountant,Private,Entry,New York,New York,67000.0,58296.32,33.56,60408.0,10831.74,80.83,24.37,128.0,45544.0,71239.74,3601.92,138239.74,61898.24,0.45,40.6943,-73.9249
290,Accountant,Private,Entry,La Palma,California,97500.0,57271.58,40.28,72504.0,7036.89,80.83,30.55,125.75,45544.0,79540.89,4269.36,177040.89,61540.94,0.35,33.8504,-118.0407
291,Accountant,Private,Entry,Urbandale,Iowa,55000.0,40752.7712,22.33,40194.0,3640.73,75.86,12.43,89.48,45544.0,43834.73,2252.76,98834.73,43005.53,0.44,41.639,-93.7812
292,Accountant,Private,Entry,New York,New York,170000.0,58296.32,33.56,60408.0,10831.74,80.83,24.37,128.0,45544.0,71239.74,3601.92,241239.74,61898.24,0.26,40.6943,-73.9249
293,Accountant,Private,Entry,Neenah,Wisconsin,98000.0,41608.9984,21.02,37836.0,4333.44,80.83,16.31,91.36,45544.0,42169.44,2731.44,140169.44,44340.44,0.32,44.1669,-88.4767
294,Accountant,Private,Entry,South Windsor,Connecticut,125000.0,49442.5664,27.62,49716.0,7073.12,72.47,28.16,108.56,45544.0,56789.12,3910.92,181789.12,53353.49,0.29,,
295,Accountant,Private,Entry,Armonk,New York,60000.0,44195.8976,33.56,60408.0,6758.4,80.83,24.37,97.04,45544.0,67166.4,3601.92,127166.4,47797.82,0.38,41.1319,-73.7138
296,Accountant,Private,Entry,Lincoln,Nebraska,60000.0,43130.168,20.58,37044.0,3710.21,80.83,10.78,94.7,45544.0,40754.21,2134.2,100754.21,45264.37,0.45,40.8099,-96.6784
297,Accountant,Private,Entry,Hollywood,Florida,57500.0,46117.8544,42.83,77094.0,5543.84,83.25,14.2,101.26,45544.0,82637.84,2532.6,140137.84,48650.45,0.35,26.0293,-80.1679
298,Accountant,Private,Entry,Glenview,Illinois,42500.0,40106.0464,23.79,42822.0,7041.83,80.83,15.99,88.06,45544.0,49863.83,2696.88,92363.83,42802.93,0.46,42.0825,-87.8214
299,Accountant,Private,Entry,Lakeland,Florida,52500.0,43904.416,31.24,56232.0,4977.02,83.25,14.2,96.4,45544.0,61209.02,2532.6,113709.02,46437.02,0.41,28.0557,-81.9545
300,Accountant,Private,Entry,Wilkes-Barre,Pennsylvania,51000.0,42560.868,28.6,51480.0,6024.26,84.33,17.6,93.45,45544.0,57504.26,2912.76,108504.26,45473.63,0.42,41.2469,-75.876
301,Accountant,Private,Entry,Sugar Land,Texas,75000.0,41467.812,30.15,54270.0,5151.54,80.83,15.32,91.05,45544.0,59421.54,2624.52,134421.54,44092.33,0.33,29.5935,-95.6358
302,Accountant,Private,Entry,Arlington,Virginia,56500.0,43134.7224,41.96,75528.0,5590.44,86.7,14.46,94.71,45544.0,81118.44,2602.08,137618.44,45736.8,0.33,38.8786,-77.1011
303,Accountant,Private,Entry,Tulsa,Oklahoma,90000.0,39486.648,15.61,28098.0,3561.39,81.27,11.52,86.7,45544.0,31659.39,2219.4,121659.39,41706.05,0.34,36.1283,-95.9042
304,Accountant,Private,Entry,Las Vegas,Nevada,60500.0,45862.808,30.23,54414.0,5392.82,80.83,14.88,100.7,45544.0,59806.82,2577.0,120306.82,48439.81,0.4,36.2333,-115.2654
305,Accountant,Private,Entry,New York,New York,62500.0,58296.32,33.56,60408.0,10831.74,80.83,24.37,128.0,45544.0,71239.74,3601.92,133739.74,61898.24,0.46,40.6943,-73.9249
306,Accountant,Private,Entry,Los Angeles,California,70500.0,64034.864,49.02,88236.0,6877.72,80.83,30.55,140.6,45544.0,95113.72,4269.36,165613.72,68304.22,0.41,34.1141,-118.4068
307,Accountant,Private,Entry,El Segundo,California,67500.0,57271.58,48.97,88146.0,7036.89,80.83,30.55,125.75,45544.0,95182.89,4269.36,162682.89,61540.94,0.38,33.917,-118.4018
308,Accountant,Private,Entry,Sacramento,California,4500.0,54789.432,26.2,47160.0,5912.24,80.83,30.55,120.3,45544.0,53072.24,4269.36,57572.24,59058.79,1.03,38.5677,-121.4685
309,Accountant,Private,Entry,Houston,Texas,58000.0,43631.152,31.12,56016.0,5245.46,80.83,15.32,95.8,45544.0,61261.46,2624.52,119261.46,46255.67,0.39,29.786,-95.3885
310,Accountant,Private,Entry,Irvine,California,108000.0,57271.58,34.67,62406.0,9010.54,80.83,30.55,125.75,45544.0,71416.54,4269.36,179416.54,61540.94,0.34,33.6772,-117.7738
311,Accountant,Private,Entry,New York,New York,67500.0,58296.32,33.56,60408.0,10831.74,80.83,24.37,128.0,45544.0,71239.74,3601.92,138739.74,61898.24,0.45,40.6943,-73.9249
312,Accountant,Private,Entry,Sunrise,Florida,55500.0,46117.8544,29.82,53676.0,4977.02,83.25,14.2,101.26,45544.0,58653.02,2532.6,114153.02,48650.45,0.43,26.1547,-80.2997
313,Accountant,Private,Entry,Naperville,Illinois,26500.0,40106.0464,23.22,41796.0,7041.83,80.83,15.99,88.06,45544.0,48837.83,2696.88,75337.83,42802.93,0.57,41.748,-88.1659
314,Accountant,Private,Entry,Houston,Texas,97500.0,43631.152,31.12,56016.0,5245.46,80.83,15.32,95.8,45544.0,61261.46,2624.52,158761.46,46255.67,0.29,29.786,-95.3885
315,Accountant,Private,Entry,Germantown,Wisconsin,90000.0,41608.9984,21.02,37836.0,4333.44,80.83,16.31,91.36,45544.0,42169.44,2731.44,132169.44,44340.44,0.34,43.2343,-88.1217
316,Accountant,Private,Entry,Lisbon,Ohio,67500.0,40443.072,20.56,37008.0,4054.52,80.83,15.98,88.8,45544.0,41062.52,2695.8,108562.52,43138.87,0.4,40.7752,-80.7628
317,Accountant,Private,Entry,Lombard,Illinois,60000.0,40106.0464,27.07,48726.0,7041.83,80.83,15.99,88.06,45544.0,55767.83,2696.88,115767.83,42802.93,0.37,41.8741,-88.0157
318,Accountant,Private,Entry,Burleson,Texas,57500.0,41467.812,27.45,49410.0,5151.54,80.83,15.32,91.05,45544.0,54561.54,2624.52,112061.54,44092.33,0.39,32.517,-97.3344
319,Accountant,Private,Entry,North Brunswick,New Jersey,25000.0,47092.496,31.19,56142.0,8059.16,82.79,19.49,103.4,45544.0,64201.16,3098.4,89201.16,50190.9,0.56,,
320,Accountant,Private,Entry,Welsh,Louisiana,85000.0,40351.984,19.57,35226.0,3973.93,80.83,11.7,88.6,45544.0,39199.93,2233.56,124199.93,42585.54,0.34,30.2355,-92.8135
321,Accountant,Private,Entry,Boston,Massachusetts,70000.0,60391.344,65.72,118296.0,8589.18,93.6,31.22,132.6,45544.0,126885.18,4494.96,196885.18,64886.3,0.33,42.3188,-71.0852
322,Accountant,Private,Entry,Anaheim,California,26500.0,57271.58,33.12,59616.0,5938.78,80.83,30.55,125.75,45544.0,65554.78,4269.36,92054.78,61540.94,0.67,33.839,-117.8574
323,Accountant,Private,Entry,Syracuse,New York,26500.0,43312.344,33.56,60408.0,6758.4,80.83,24.37,95.1,45544.0,67166.4,3601.92,93666.4,46914.26,0.5,43.0407,-76.1437
324,Accountant,Private,Entry,Omaha,Nebraska,66500.0,42310.376,24.26,43668.0,4094.4,80.83,10.78,92.9,45544.0,47762.4,2134.2,114262.4,44444.58,0.39,41.2627,-96.0529
325,Accountant,Private,Entry,Edinboro,Pennsylvania,52500.0,42560.868,28.6,51480.0,6024.26,84.33,17.6,93.45,45544.0,57504.26,2912.76,110004.26,45473.63,0.41,41.8762,-80.1247
326,Accountant,Private,Entry,Euless,Texas,31355.0,41467.812,27.45,49410.0,5151.54,80.83,15.32,91.05,45544.0,54561.54,2624.52,85916.54,44092.33,0.51,32.8508,-97.08
327,Accountant,Private,Entry,Rochester,New York,51000.0,43995.504,21.48,38664.0,3519.92,80.83,24.37,96.6,45544.0,42183.92,3601.92,93183.92,47597.42,0.51,43.168,-77.6162
328,Accountant,Private,Entry,Orange Beach,Alabama,70000.0,40702.6728,20.67,37206.0,4021.31,74.1,14.91,89.37,45544.0,41227.31,2499.48,111227.31,43202.15,0.39,30.2942,-87.5849
329,Accountant,Private,Entry,Columbus,Ohio,72000.0,42765.816,21.28,38304.0,4562.82,80.83,15.98,93.9,45544.0,42866.82,2695.8,114866.82,45461.62,0.4,39.9862,-82.9855
330,Accountant,Private,Entry,Indianapolis,Indiana,70000.0,41080.688,20.84,37512.0,4670.34,80.83,14.42,90.2,45544.0,42182.34,2527.32,112182.34,43608.01,0.39,39.7771,-86.1458
331,Accountant,Private,Entry,Convent,Louisiana,48500.0,40351.984,19.57,35226.0,3973.93,80.83,11.7,88.6,45544.0,39199.93,2233.56,87699.93,42585.54,0.49,30.0132,-90.8232
332,Accountant,Private,Entry,Beloit,Wisconsin,67500.0,41608.9984,21.02,37836.0,4333.44,80.83,16.31,91.36,45544.0,42169.44,2731.44,109669.44,44340.44,0.4,42.523,-89.0184
333,Accountant,Private,Entry,Houston,Texas,55500.0,43631.152,31.12,56016.0,5245.46,80.83,15.32,95.8,45544.0,61261.46,2624.52,116761.46,46255.67,0.4,29.786,-95.3885
334,Accountant,Private,Entry,New York,New York,75000.0,58296.32,33.56,60408.0,10831.74,80.83,24.37,128.0,45544.0,71239.74,3601.92,146239.74,61898.24,0.42,40.6943,-73.9249
335,Accountant,Private,Entry,Davenport,Iowa,91500.0,39714.368,22.91,41238.0,3640.73,75.86,12.43,87.2,45544.0,44878.73,2252.76,136378.73,41967.13,0.31,41.5565,-90.6053
336,Accountant,Private,Entry,San Diego,California,34000.0,62030.928,41.6,74880.0,6210.03,80.83,30.55,136.2,45544.0,81090.03,4269.36,115090.03,66300.29,0.58,32.8313,-117.1222
337,Accountant,Private,Entry,New York,New York,135000.0,58296.32,33.56,60408.0,10831.74,80.83,24.37,128.0,45544.0,71239.74,3601.92,206239.74,61898.24,0.3,40.6943,-73.9249
338,Accountant,Private,Entry,Wilmington,Delaware,125000.0,46750.916,36.46,65628.0,7073.12,80.66,16.68,102.65,45544.0,72701.12,2769.36,197701.12,49520.28,0.25,39.7415,-75.5416
339,Accountant,Private,Entry,Reston,Virginia,121000.0,43134.7224,30.21,54378.0,5590.44,86.7,14.46,94.71,45544.0,59968.44,2602.08,180968.44,45736.8,0.25,38.9497,-77.3461
340,Accountant,Private,Entry,Riverside,California,62500.0,52876.584,28.23,50814.0,5772.57,80.83,30.55,116.1,45544.0,56586.57,4269.36,119086.57,57145.94,0.48,33.9381,-117.3949
341,Accountant,Private,Entry,Pennsauken,New Jersey,62000.0,47092.496,31.19,56142.0,8059.16,82.79,19.49,103.4,45544.0,64201.16,3098.4,126201.16,50190.9,0.4,,
342,Accountant,Private,Entry,Post Falls,Idaho,85000.0,43253.1368,23.06,41508.0,4351.75,64.88,10.97,94.97,45544.0,45859.75,1963.32,130859.75,45216.46,0.35,47.7213,-116.9384
343,Accountant,Private,Entry,Omaha,Nebraska,58500.0,42310.376,24.26,43668.0,4094.4,80.83,10.78,92.9,45544.0,47762.4,2134.2,106262.4,44444.58,0.42,41.2627,-96.0529
344,Accountant,Private,Entry,Fort Lauderdale,Florida,55500.0,46117.8544,32.61,58698.0,5474.08,83.25,14.2,101.26,45544.0,64172.08,2532.6,119672.08,48650.45,0.41,26.1412,-80.1464
345,Accountant,Private,Entry,Chestnut Hill,Massachusetts,114000.0,52170.652,48.35,87030.0,6062.35,93.6,31.22,114.55,45544.0,93092.35,4494.96,207092.35,56665.61,0.27,,
346,Accountant,Private,Entry,Arlington,Virginia,68500.0,43134.7224,41.96,75528.0,5590.44,86.7,14.46,94.71,45544.0,81118.44,2602.08,149618.44,45736.8,0.31,38.8786,-77.1011
347,Accountant,Private,Entry,Cleveland,Ohio,51000.0,40989.6,20.79,37422.0,3936.9,80.83,15.98,90.0,45544.0,41358.9,2695.8,92358.9,43685.4,0.47,41.4764,-81.6805
348,Accountant,Private,Entry,Clear Lake Shores,Texas,59500.0,41467.812,27.45,49410.0,5151.54,80.83,15.32,91.05,45544.0,54561.54,2624.52,114061.54,44092.33,0.39,29.5454,-95.0325
349,Accountant,Private,Entry,Folsom,California,105500.0,57271.58,26.82,48276.0,7036.89,80.83,30.55,125.75,45544.0,55312.89,4269.36,160812.89,61540.94,0.38,38.6668,-121.1422
350,Accountant,Private,Entry,Coral Gables,Florida,63500.0,46117.8544,50.34,90612.0,4977.02,83.25,14.2,101.26,45544.0,95589.02,2532.6,159089.02,48650.45,0.31,25.7037,-80.2715
351,Accountant,Private,Entry,Brooklyn,New York,62500.0,44195.8976,44.85,80730.0,6758.4,80.83,24.37,97.04,45544.0,87488.4,3601.92,149988.4,47797.82,0.32,40.6501,-73.9496
352,Accountant,Private,Entry,Troy,Michigan,60000.0,40916.7296,19.87,35766.0,3880.78,80.83,18.41,89.84,45544.0,39646.78,2958.24,99646.78,43874.97,0.44,42.5817,-83.1457
353,Accountant,Private,Entry,Moore,South Carolina,70000.0,42542.6504,27.08,48744.0,7073.12,74.17,13.87,93.41,45544.0,55817.12,2388.0,125817.12,44930.65,0.36,,
354,Accountant,Private,Entry,,Alabama,25520.0,40702.6728,20.67,37206.0,4021.31,74.1,14.91,89.37,45544.0,41227.31,2499.48,66747.31,43202.15,0.65,,
355,Accountant,Private,Entry,Maui Meadows,Hawaii,70000.0,70397.3608,37.48,67464.0,5029.32,63.18,42.34,154.57,45544.0,72493.32,5330.88,142493.32,75728.24,0.53,,
356,Accountant,Private,Entry,Redondo Beach,California,85000.0,57271.58,40.28,72504.0,7036.89,80.83,30.55,125.75,45544.0,79540.89,4269.36,164540.89,61540.94,0.37,33.8577,-118.3765
357,Accountant,Private,Entry,Saint Croix Falls,Wisconsin,55500.0,41608.9984,21.02,37836.0,4333.44,80.83,16.31,91.36,45544.0,42169.44,2731.44,97669.44,44340.44,0.45,,
358,Accountant,Private,Entry,Kalamazoo,Michigan,28160.0,40670.792,18.88,33984.0,3880.78,80.83,18.41,89.3,45544.0,37864.78,2958.24,66024.78,43629.03,0.66,42.2749,-85.5882
359,Accountant,Private,Entry,Burlington,New Jersey,145000.0,47092.496,31.19,56142.0,8059.16,82.79,19.49,103.4,45544.0,64201.16,3098.4,209201.16,50190.9,0.24,,
360,Accountant,Private,Entry,Buffalo,New York,92000.0,44314.312,19.21,34578.0,4174.42,80.83,24.37,97.3,45544.0,38752.42,3601.92,130752.42,47916.23,0.37,42.9018,-78.8487
361,Accountant,Private,Entry,Loveland,Colorado,140000.0,49324.152,25.38,45684.0,5740.88,80.83,15.16,108.3,45544.0,51424.88,2607.24,191424.88,51931.39,0.27,40.4166,-105.0623
362,Accountant,Private,Entry,Corona,California,65000.0,57271.58,31.49,56682.0,6525.11,80.83,30.55,125.75,45544.0,63207.11,4269.36,128207.11,61540.94,0.48,33.8616,-117.5649
363,Accountant,Private,Entry,Burnet,Texas,67500.0,41467.812,27.45,49410.0,5151.54,80.83,15.32,91.05,45544.0,54561.54,2624.52,122061.54,44092.33,0.36,30.7496,-98.2383
364,Accountant,Private,Entry,Nashville,Tennessee,58000.0,45589.544,30.46,54828.0,5088.14,80.83,13.04,100.1,45544.0,59916.14,2378.28,117916.14,47967.82,0.41,36.1715,-86.7842
365,Accountant,Private,Entry,Milwaukee,Wisconsin,57500.0,42720.272,23.29,41922.0,3992.97,80.83,16.31,93.8,45544.0,45914.97,2731.44,103414.97,45451.71,0.44,43.0642,-87.9675
366,Accountant,Private,Entry,Wilmington,Massachusetts,65000.0,52170.652,48.35,87030.0,6062.35,93.6,31.22,114.55,45544.0,93092.35,4494.96,158092.35,56665.61,0.36,,
367,Accountant,Private,Entry,Arroyo Grande,California,110000.0,57271.58,40.28,72504.0,7036.89,80.83,30.55,125.75,45544.0,79540.89,4269.36,189540.89,61540.94,0.32,35.1241,-120.5845
368,Accountant,Private,Entry,Los Angeles,California,63500.0,64034.864,49.02,88236.0,6877.72,80.83,30.55,140.6,45544.0,95113.72,4269.36,158613.72,68304.22,0.43,34.1141,-118.4068
369,Accountant,Private,Entry,Fairfield,California,83000.0,57271.58,40.28,72504.0,7036.89,80.83,30.55,125.75,45544.0,79540.89,4269.36,162540.89,61540.94,0.38,38.2583,-122.0335
370,Accountant,Private,Entry,Riviera Beach,Florida,78500.0,46117.8544,31.24,56232.0,4977.02,83.25,14.2,101.26,45544.0,61209.02,2532.6,139709.02,48650.45,0.35,26.7813,-80.0741
371,Accountant,Private,Entry,Eastchester,New York,80000.0,44195.8976,33.56,60408.0,6758.4,80.83,24.37,97.04,45544.0,67166.4,3601.92,147166.4,47797.82,0.32,,
372,Accountant,Private,Entry,Miami,Florida,55500.0,50143.944,49.18,88524.0,4541.57,83.25,14.2,110.1,45544.0,93065.57,2532.6,148565.57,52676.54,0.35,25.784,-80.2101
373,Accountant,Private,Entry,American Fork,Utah,26500.0,45525.7824,24.79,44622.0,4143.37,69.01,11.02,99.96,45544.0,48765.37,2018.28,75265.37,47544.06,0.63,40.3783,-111.7953
374,Accountant,Private,Entry,Syracuse,New York,65000.0,43312.344,33.56,60408.0,6758.4,80.83,24.37,95.1,45544.0,67166.4,3601.92,132166.4,46914.26,0.35,43.0407,-76.1437
375,Accountant,Private,Entry,Rochester,Minnesota,53500.0,44314.312,25.42,45756.0,5231.86,68.66,14.05,97.3,45544.0,50987.86,2341.32,104487.86,46655.63,0.45,44.0154,-92.478
376,Accountant,Private,Entry,Valley Center,California,65500.0,57271.58,40.28,72504.0,7036.89,80.83,30.55,125.75,45544.0,79540.89,4269.36,145040.89,61540.94,0.42,33.233,-117.0158
377,Accountant,Private,Entry,New York,New York,62500.0,58296.32,33.56,60408.0,10831.74,80.83,24.37,128.0,45544.0,71239.74,3601.92,133739.74,61898.24,0.46,40.6943,-73.9249
378,Accountant,Private,Entry,Fort Myers,Florida,57000.0,46227.16,22.14,39852.0,4977.02,83.25,14.2,101.5,45544.0,44829.02,2532.6,101829.02,48759.76,0.48,26.6194,-81.8302
379,Accountant,Private,Entry,Houston,Texas,55000.0,43631.152,31.12,56016.0,5245.46,80.83,15.32,95.8,45544.0,61261.46,2624.52,116261.46,46255.67,0.4,29.786,-95.3885
380,Accountant,Private,Entry,Southfield,Michigan,57000.0,40916.7296,20.47,36846.0,3880.78,80.83,18.41,89.84,45544.0,40726.78,2958.24,97726.78,43874.97,0.45,42.4765,-83.2605
381,Accountant,Private,Entry,Houston,Texas,65000.0,43631.152,31.12,56016.0,5245.46,80.83,15.32,95.8,45544.0,61261.46,2624.52,126261.46,46255.67,0.37,29.786,-95.3885
382,Accountant,Private,Entry,Bridgeport,West Virginia,75000.0,38402.7008,36.46,65628.0,7073.12,86.17,14.51,84.32,45544.0,72701.12,2601.12,147701.12,41003.82,0.28,39.3036,-80.2478
383,Accountant,Private,Entry,Milwaukee,Wisconsin,75000.0,42720.272,23.29,41922.0,3992.97,80.83,16.31,93.8,45544.0,45914.97,2731.44,120914.97,45451.71,0.38,43.0642,-87.9675
384,Accountant,Private,Entry,La Palma,California,97500.0,57271.58,40.28,72504.0,7036.89,80.83,30.55,125.75,45544.0,79540.89,4269.36,177040.89,61540.94,0.35,33.8504,-118.0407
385,Accountant,Private,Entry,Church Rock,New Mexico,58500.0,41271.9728,19.07,34326.0,4666.31,68.46,14.26,90.62,45544.0,38992.31,2361.6,97492.31,43633.57,0.45,35.5692,-108.573
386,Accountant,Private,Entry,,California,205500.0,57271.58,40.28,72504.0,7036.89,80.83,30.55,125.75,45544.0,79540.89,4269.36,285040.89,61540.94,0.22,,
387,Accountant,Private,Entry,West Palm Beach,Florida,90000.0,46117.8544,36.56,65808.0,4977.02,83.25,14.2,101.26,45544.0,70785.02,2532.6,160785.02,48650.45,0.3,26.7469,-80.132
388,Accountant,Private,Entry,West Covina,California,65000.0,57271.58,28.21,50778.0,7036.89,80.83,30.55,125.75,45544.0,57814.89,4269.36,122814.89,61540.94,0.5,34.0555,-117.9113
389,Accountant,Private,Entry,Staten Island,New York,64000.0,44195.8976,33.56,60408.0,6758.4,80.83,24.37,97.04,45544.0,67166.4,3601.92,131166.4,47797.82,0.36,40.5834,-74.1496
390,Accountant,Private,Entry,Jersey City,New Jersey,104500.0,47092.496,50.0,90000.0,10903.23,82.79,19.49,103.4,45544.0,100903.23,3098.4,205403.23,50190.9,0.24,40.7184,-74.0686
391,Accountant,Private,Entry,New York,New York,170000.0,58296.32,33.56,60408.0,10831.74,80.83,24.37,128.0,45544.0,71239.74,3601.92,241239.74,61898.24,0.26,40.6943,-73.9249
392,Accountant,Private,Entry,Woodland Hills,California,130000.0,57271.58,26.77,48186.0,7036.89,80.83,30.55,125.75,45544.0,55222.89,4269.36,185222.89,61540.94,0.33,,
393,Accountant,Private,Entry,King of Prussia,Pennsylvania,24000.0,42560.868,30.34,54612.0,6024.26,84.33,17.6,93.45,45544.0,60636.26,2912.76,84636.26,45473.63,0.54,40.0963,-75.3821
394,Accountant,Private,Entry,Budd Lake,New Jersey,59000.0,47092.496,31.19,56142.0,8059.16,82.79,19.49,103.4,45544.0,64201.16,3098.4,123201.16,50190.9,0.41,40.8733,-74.7375
395,Accountant,Private,Entry,Kyle,Texas,72000.0,41467.812,27.45,49410.0,5151.54,80.83,15.32,91.05,45544.0,54561.54,2624.52,126561.54,44092.33,0.35,29.9932,-97.8852
396,Accountant,Private,Entry,Las Cruces,New Mexico,65000.0,40443.072,19.07,34326.0,4666.31,68.46,14.26,88.8,45544.0,38992.31,2361.6,103992.31,42804.67,0.41,32.3265,-106.7893
397,Accountant,Private,Entry,Southfield,Michigan,59500.0,40916.7296,20.47,36846.0,3880.78,80.83,18.41,89.84,45544.0,40726.78,2958.24,100226.78,43874.97,0.44,42.4765,-83.2605
398,Accountant,Private,Entry,Albuquerque,New Mexico,23750.0,42310.376,20.12,36216.0,4666.31,68.46,14.26,92.9,45544.0,40882.31,2361.6,64632.31,44671.98,0.69,35.1054,-106.6465
399,Accountant,Private,Entry,New Orleans,Louisiana,81500.0,42082.656,20.03,36054.0,4692.05,80.83,11.7,92.4,45544.0,40746.05,2233.56,122246.05,44316.22,0.36,30.0687,-89.9288
400,Accountant,Private,Entry,New York,New York,85000.0,58296.32,33.56,60408.0,10831.74,80.83,24.37,128.0,45544.0,71239.74,3601.92,156239.74,61898.24,0.4,40.6943,-73.9249
401,Accountant,Private,Entry,Wayne,New Jersey,115000.0,47092.496,31.19,56142.0,8059.16,82.79,19.49,103.4,45544.0,64201.16,3098.4,179201.16,50190.9,0.28,,
402,Accountant,Private,Entry,Boca Raton,Florida,20000.0,46117.8544,34.31,61758.0,4977.02,83.25,14.2,101.26,45544.0,66735.02,2532.6,86735.02,48650.45,0.56,26.3752,-80.108
403,Accountant,Private,Entry,Little Rock,Arkansas,54500.0,40078.72,19.74,35532.0,3854.67,80.01,11.74,88.0,45544.0,39386.67,2228.04,93886.67,42306.76,0.45,34.7256,-92.3577
404,Accountant,Private,Entry,Manchester,New Hampshire,22500.0,49916.224,26.74,48132.0,7073.12,80.83,23.62,109.6,45544.0,55205.12,3520.92,77705.12,53437.14,0.69,42.9848,-71.4447
405,Accountant,Private,Entry,Franklin,Tennessee,100000.0,41167.2216,32.66,58788.0,4096.03,80.83,13.04,90.39,45544.0,62884.03,2378.28,162884.03,43545.5,0.27,35.92,-86.8516
406,Accountant,Private,Entry,Munhall,Pennsylvania,95500.0,42560.868,28.6,51480.0,6024.26,84.33,17.6,93.45,45544.0,57504.26,2912.76,153004.26,45473.63,0.3,40.3935,-79.9005
407,Accountant,Private,Entry,Grand Rapids,Michigan,132500.0,42674.728,22.56,40608.0,3494.24,80.83,18.41,93.7,45544.0,44102.24,2958.24,176602.24,45632.97,0.26,42.9619,-85.6562
408,Accountant,Private,Entry,Bethesda,Maryland,101000.0,46054.0928,36.91,66438.0,6001.22,75.44,18.15,101.12,45544.0,72439.22,2865.48,173439.22,48919.57,0.28,38.9866,-77.1188
409,Accountant,Private,Entry,Ontario,California,27000.0,57271.58,29.34,52812.0,6164.74,80.83,30.55,125.75,45544.0,58976.74,4269.36,85976.74,61540.94,0.72,34.0393,-117.6064
410,Accountant,Private,Entry,Portland,Oregon,105000.0,53058.76,28.45,51210.0,6557.06,72.27,14.12,116.5,45544.0,57767.06,2392.2,162767.06,55450.96,0.34,45.5371,-122.65
411,Accountant,Private,Entry,Austin,Texas,132000.0,48549.904,41.81,75258.0,6365.46,80.83,15.32,106.6,45544.0,81623.46,2624.52,213623.46,51174.42,0.24,30.3005,-97.7522
412,Accountant,Private,Entry,Ogden,Utah,54500.0,45452.912,18.76,33768.0,4143.37,69.01,11.02,99.8,45544.0,37911.37,2018.28,92411.37,47471.19,0.51,41.2279,-111.9682
413,Accountant,Private,Entry,Phoenix,Arizona,32175.0,47502.392,26.61,47898.0,5119.48,75.34,15.2,104.3,45544.0,53017.48,2545.68,85192.48,50048.07,0.59,33.5722,-112.0892
414,Accountant,Private,Entry,Monterey Park,California,77500.0,57271.58,32.42,58356.0,7036.89,80.83,30.55,125.75,45544.0,65392.89,4269.36,142892.89,61540.94,0.43,34.0497,-118.1326
415,Accountant,Private,Entry,Baltimore,Maryland,64500.0,48732.08,26.17,47106.0,6001.22,75.44,18.15,107.0,45544.0,53107.22,2865.48,117607.22,51597.56,0.44,39.3051,-76.6144
416,Accountant,Private,Entry,Vancouver,Washington,6000.0,48741.1888,27.34,49212.0,4996.3,80.83,11.83,107.02,45544.0,54208.3,2247.6,60208.3,50988.79,0.85,45.6366,-122.5967
417,Accountant,Private,Entry,Cranbury,New Jersey,70000.0,47092.496,31.19,56142.0,8059.16,82.79,19.49,103.4,45544.0,64201.16,3098.4,134201.16,50190.9,0.37,,
418,Accountant,Private,Entry,Novi,Michigan,54500.0,40916.7296,29.41,52938.0,3880.78,80.83,18.41,89.84,45544.0,56818.78,2958.24,111318.78,43874.97,0.39,42.4786,-83.4893
419,Accountant,Private,Entry,Naples,Florida,32670.0,49825.136,34.28,61704.0,4977.02,83.25,14.2,109.4,45544.0,66681.02,2532.6,99351.02,52357.74,0.53,26.1504,-81.7936
420,Accountant,Private,Entry,Vero Beach,Florida,27500.0,45043.016,31.24,56232.0,4977.02,83.25,14.2,98.9,45544.0,61209.02,2532.6,88709.02,47575.62,0.54,27.6463,-80.393
421,Accountant,Private,Entry,San Juan,Puerto Rico,31000.0,51851.844,36.46,65628.0,7073.12,80.83,20.27,113.85,45544.0,72701.12,3159.03,103701.12,55010.88,0.53,18.3985,-66.061
422,Accountant,Private,Entry,Reading,Pennsylvania,23500.0,43722.24,28.6,51480.0,6024.26,84.33,17.6,96.0,45544.0,57504.26,2912.76,81004.26,46635.0,0.58,40.34,-75.9267
423,Accountant,Private,Entry,Houston,Texas,61500.0,43631.152,31.12,56016.0,5245.46,80.83,15.32,95.8,45544.0,61261.46,2624.52,122761.46,46255.67,0.38,29.786,-95.3885
424,Accountant,Private,Entry,New York,New York,99500.0,58296.32,33.56,60408.0,10831.74,80.83,24.37,128.0,45544.0,71239.74,3601.92,170739.74,61898.24,0.36,40.6943,-73.9249
425,Accountant,Private,Entry,Pasadena,California,63500.0,57271.58,42.33,76194.0,7036.89,80.83,30.55,125.75,45544.0,83230.89,4269.36,146730.89,61540.94,0.42,34.1597,-118.139
426,Accountant,Private,Entry,Thibodaux,Louisiana,68500.0,40351.984,19.57,35226.0,3973.93,80.83,11.7,88.6,45544.0,39199.93,2233.56,107699.93,42585.54,0.4,29.7949,-90.8146
427,Accountant,Private,Entry,,Arizona,85000.0,45721.6216,27.25,49050.0,5693.03,75.34,15.2,100.39,45544.0,54743.03,2545.68,139743.03,48267.3,0.35,,
428,Accountant,Private,Entry,Marlborough,Massachusetts,66500.0,52170.652,48.35,87030.0,6062.35,93.6,31.22,114.55,45544.0,93092.35,4494.96,159592.35,56665.61,0.36,42.3494,-71.5468
429,Accountant,Private,Entry,Atlanta,Georgia,53000.0,45680.632,34.79,62622.0,7289.35,80.83,13.49,100.3,45544.0,69911.35,2426.88,122911.35,48107.51,0.39,33.7628,-84.422
430,Accountant,Private,Entry,Oviedo,Florida,50500.0,46117.8544,31.24,56232.0,4977.02,83.25,14.2,101.26,45544.0,61209.02,2532.6,111709.02,48650.45,0.44,28.658,-81.1872
431,Accountant,Private,Entry,Aliso Viejo,California,23500.0,57271.58,29.96,53928.0,7036.89,80.83,30.55,125.75,45544.0,60964.89,4269.36,84464.89,61540.94,0.73,33.5792,-117.7289
432,Accountant,Private,Entry,,Texas,59500.0,41467.812,27.45,49410.0,5151.54,80.83,15.32,91.05,45544.0,54561.54,2624.52,114061.54,44092.33,0.39,,
433,Accountant,Private,Entry,Baltimore,Maryland,58500.0,48732.08,26.17,47106.0,6001.22,75.44,18.15,107.0,45544.0,53107.22,2865.48,111607.22,51597.56,0.46,39.3051,-76.6144
434,Accountant,Private,Entry,Sacramento,California,4500.0,54789.432,26.2,47160.0,5912.24,80.83,30.55,120.3,45544.0,53072.24,4269.36,57572.24,59058.79,1.03,38.5677,-121.4685
435,Accountant,Private,Entry,Plano,Texas,57000.0,41467.812,37.11,66798.0,7098.23,80.83,15.32,91.05,45544.0,73896.23,2624.52,130896.23,44092.33,0.34,33.0502,-96.7486
436,Accountant,Private,Entry,Minneapolis,Minnesota,111000.0,48003.376,30.87,55566.0,5694.89,68.66,14.05,105.4,45544.0,61260.89,2341.32,172260.89,50344.7,0.29,44.9635,-93.2678
437,Accountant,Private,Entry,Port Arthur,Texas,31380.0,41467.812,27.45,49410.0,5151.54,80.83,15.32,91.05,45544.0,54561.54,2624.52,85941.54,44092.33,0.51,29.8554,-93.9264
438,Accountant,Private,Entry,Des Moines,Iowa,131000.0,41763.848,25.08,45144.0,3640.73,75.86,12.43,91.7,45544.0,48784.73,2252.76,179784.73,44016.61,0.24,41.5725,-93.6105
439,Accountant,Private,Entry,Hartville,Ohio,65000.0,40443.072,20.56,37008.0,4054.52,80.83,15.98,88.8,45544.0,41062.52,2695.8,106062.52,43138.87,0.41,40.9618,-81.3348
440,Accountant,Private,Entry,Kings Park,New York,115000.0,44195.8976,33.56,60408.0,6758.4,80.83,24.37,97.04,45544.0,67166.4,3601.92,182166.4,47797.82,0.26,40.8881,-73.2475
441,Accountant,Private,Entry,Greendale,Indiana,105000.0,39759.912,20.45,36810.0,4331.59,80.83,14.42,87.3,45544.0,41141.59,2527.32,146141.59,42287.23,0.29,39.1316,-84.851
442,Accountant,Private,Entry,Atlantic City,New Jersey,77500.0,46454.88,31.19,56142.0,8059.16,82.79,19.49,102.0,45544.0,64201.16,3098.4,141701.16,49553.28,0.35,39.3797,-74.4527
443,Accountant,Private,Entry,Las Vegas,Nevada,70000.0,45862.808,30.23,54414.0,5392.82,80.83,14.88,100.7,45544.0,59806.82,2577.0,129806.82,48439.81,0.37,36.2333,-115.2654
444,Accountant,Private,Entry,Placentia,California,110000.0,57271.58,25.44,45792.0,7036.89,80.83,30.55,125.75,45544.0,52828.89,4269.36,162828.89,61540.94,0.38,33.8807,-117.8553
445,Accountant,Private,Entry,Brookshire,Texas,75000.0,41467.812,27.45,49410.0,5151.54,80.83,15.32,91.05,45544.0,54561.54,2624.52,129561.54,44092.33,0.34,29.7824,-95.9514
446,Accountant,Private,Entry,Atlanta,Georgia,47500.0,45680.632,34.79,62622.0,7289.35,80.83,13.49,100.3,45544.0,69911.35,2426.88,117411.35,48107.51,0.41,33.7628,-84.422
447,Accountant,Private,Entry,Hutchins,Texas,52500.0,41467.812,27.45,49410.0,5151.54,80.83,15.32,91.05,45544.0,54561.54,2624.52,107061.54,44092.33,0.41,32.6421,-96.7093
448,Accountant,Private,Entry,Gainesville,Florida,90000.0,44314.312,31.24,56232.0,4977.02,83.25,14.2,97.3,45544.0,61209.02,2532.6,151209.02,46846.91,0.31,29.6804,-82.3459
449,Accountant,Private,Entry,Auburn,Washington,55500.0,48741.1888,31.45,56610.0,6659.49,80.83,11.83,107.02,45544.0,63269.49,2247.6,118769.49,50988.79,0.43,47.3039,-122.2108
450,Accountant,Private,Entry,Woodbury,New York,68500.0,44195.8976,33.56,60408.0,6758.4,80.83,24.37,97.04,45544.0,67166.4,3601.92,135666.4,47797.82,0.35,41.3284,-74.1004
451,Accountant,Private,Entry,Woodbury,New York,68500.0,44195.8976,33.56,60408.0,6758.4,80.83,24.37,97.04,45544.0,67166.4,3601.92,135666.4,47797.82,0.35,40.8176,-73.4703
452,Accountant,Private,Entry,Lakewood Ranch,Florida,56500.0,46117.8544,31.24,56232.0,4977.02,83.25,14.2,101.26,45544.0,61209.02,2532.6,117709.02,48650.45,0.41,27.4185,-82.3948
453,Accountant,Private,Entry,Washington,District of Columbia,62500.0,54698.344,52.54,94572.0,7073.12,80.83,20.27,120.1,45544.0,101645.12,3159.03,164145.12,57857.38,0.35,38.9047,-77.0163
454,Accountant,Private,Entry,Richardson,Texas,69500.0,41467.812,25.53,45954.0,5151.54,80.83,15.32,91.05,45544.0,51105.54,2624.52,120605.54,44092.33,0.37,32.9716,-96.7093
455,Accountant,Private,Entry,Yakima,Washington,35860.0,44405.4,31.45,56610.0,6659.49,80.83,11.83,97.5,45544.0,63269.49,2247.6,99129.49,46653.0,0.47,46.5923,-120.5496
456,Accountant,Private,Entry,New York,New York,77500.0,58296.32,33.56,60408.0,10831.74,80.83,24.37,128.0,45544.0,71239.74,3601.92,148739.74,61898.24,0.42,40.6943,-73.9249
457,Accountant,Private,Entry,Houston,Texas,65500.0,43631.152,31.12,56016.0,5245.46,80.83,15.32,95.8,45544.0,61261.46,2624.52,126761.46,46255.67,0.36,29.786,-95.3885
458,Accountant,Private,Entry,Shelton,Washington,68000.0,49916.224,31.45,56610.0,6659.49,80.83,11.83,109.6,45544.0,63269.49,2247.6,131269.49,52163.82,0.4,47.2186,-123.1121
459,Accountant,Private,Entry,Bayamon,Puerto Rico,38500.0,51851.844,36.46,65628.0,7073.12,80.83,20.27,113.85,45544.0,72701.12,3159.03,111201.12,55010.88,0.49,,
460,Accountant,Private,Entry,Juneau,Alaska,6500.0,49779.592,36.46,65628.0,4845.27,103.73,22.38,109.3,45544.0,70473.27,3661.8,76973.27,53441.39,0.69,58.4546,-134.1739
461,Accountant,Private,Entry,Ellensburg,Washington,7000.0,48741.1888,31.45,56610.0,6659.49,80.83,11.83,107.02,45544.0,63269.49,2247.6,70269.49,50988.79,0.73,46.9999,-120.5475
462,Accountant,Private,Entry,Boston,Massachusetts,66500.0,60391.344,65.72,118296.0,8589.18,93.6,31.22,132.6,45544.0,126885.18,4494.96,193385.18,64886.3,0.34,42.3188,-71.0852
463,Accountant,Private,Entry,Shreveport,Louisiana,57000.0,39076.752,19.57,35226.0,3443.5,80.83,11.7,85.8,45544.0,38669.5,2233.56,95669.5,41310.31,0.43,32.4653,-93.7955
464,Accountant,Private,Entry,Champaign,Illinois,85000.0,40534.16,23.79,42822.0,7041.83,80.83,15.99,89.0,45544.0,49863.83,2696.88,134863.83,43231.04,0.32,40.1142,-88.2737
465,Accountant,Private,Entry,Auburn,New Hampshire,102500.0,49041.7792,26.74,48132.0,7073.12,80.83,23.62,107.68,45544.0,55205.12,3520.92,157705.12,52562.7,0.33,,
466,Accountant,Private,Entry,Snow Hill,North Carolina,62500.0,41827.6096,27.48,49464.0,4979.85,80.83,13.49,91.84,45544.0,54443.85,2426.88,116943.85,44254.49,0.38,35.4506,-77.6769
467,Accountant,Private,Entry,Manorville,New York,82500.0,44195.8976,33.56,60408.0,6758.4,80.83,24.37,97.04,45544.0,67166.4,3601.92,149666.4,47797.82,0.32,40.8574,-72.7915
468,Accountant,Private,Entry,Wilmington,Delaware,106000.0,46750.916,36.46,65628.0,7073.12,80.66,16.68,102.65,45544.0,72701.12,2769.36,178701.12,49520.28,0.28,39.7415,-75.5416
469,Accountant,Private,Entry,Newport News,Virginia,70000.0,43134.7224,18.48,33264.0,4082.0,86.7,14.46,94.71,45544.0,37346.0,2602.08,107346.0,45736.8,0.43,37.1051,-76.5185
470,Accountant,Private,Entry,Indianapolis,Indiana,3500.0,41080.688,20.84,37512.0,4670.34,80.83,14.42,90.2,45544.0,42182.34,2527.32,45682.34,43608.01,0.95,39.7771,-86.1458
471,Accountant,Private,Entry,New York,New York,62500.0,58296.32,33.56,60408.0,10831.74,80.83,24.37,128.0,45544.0,71239.74,3601.92,133739.74,61898.24,0.46,40.6943,-73.9249
472,Accountant,Private,Entry,Santa Ana,California,155000.0,57271.58,28.83,51894.0,4314.88,80.83,30.55,125.75,45544.0,56208.88,4269.36,211208.88,61540.94,0.29,33.7367,-117.8819
473,Accountant,Private,Entry,Milwaukee,Wisconsin,60500.0,42720.272,23.29,41922.0,3992.97,80.83,16.31,93.8,45544.0,45914.97,2731.44,106414.97,45451.71,0.43,43.0642,-87.9675
474,Accountant,Private,Entry,Florence,South Carolina,60000.0,39942.088,27.08,48744.0,7073.12,74.17,13.87,87.7,45544.0,55817.12,2388.0,115817.12,42330.09,0.37,34.178,-79.7898
475,Accountant,Private,Entry,Chalfont,Pennsylvania,61000.0,42560.868,28.6,51480.0,6024.26,84.33,17.6,93.45,45544.0,57504.26,2912.76,118504.26,45473.63,0.38,40.2893,-75.2095
476,Accountant,Private,Entry,Miami,Florida,46000.0,50143.944,49.18,88524.0,4541.57,83.25,14.2,110.1,45544.0,93065.57,2532.6,139065.57,52676.54,0.38,25.784,-80.2101
477,Accountant,Private,Entry,Orlando,Florida,28840.0,46181.616,26.74,48132.0,4886.84,83.25,14.2,101.4,45544.0,53018.84,2532.6,81858.84,48714.22,0.6,28.4773,-81.337
478,Accountant,Private,Entry,Livonia,Michigan,51000.0,40916.7296,19.17,34506.0,3880.78,80.83,18.41,89.84,45544.0,38386.78,2958.24,89386.78,43874.97,0.49,42.3972,-83.3733
479,Accountant,Private,Entry,Macon,Georgia,50000.0,39714.368,16.48,29664.0,5285.46,80.83,13.49,87.2,45544.0,34949.46,2426.88,84949.46,42141.25,0.5,32.8065,-83.6974
480,Accountant,Private,Entry,Norwich,New York,25405.0,44195.8976,33.56,60408.0,6758.4,80.83,24.37,97.04,45544.0,67166.4,3601.92,92571.4,47797.82,0.52,42.5333,-75.5227
481,Accountant,Private,Entry,Irvine,California,73500.0,57271.58,34.67,62406.0,9010.54,80.83,30.55,125.75,45544.0,71416.54,4269.36,144916.54,61540.94,0.42,33.6772,-117.7738
482,Accountant,Private,Entry,Gadsden,Alabama,43000.0,39167.84,20.67,37206.0,4021.31,74.1,14.91,86.0,45544.0,41227.31,2499.48,84227.31,41667.32,0.49,34.0086,-86.0157
483,Accountant,Private,Entry,Fort Lauderdale,Florida,130000.0,46117.8544,32.61,58698.0,5474.08,83.25,14.2,101.26,45544.0,64172.08,2532.6,194172.08,48650.45,0.25,26.1412,-80.1464
484,Accountant,Private,Entry,Seattle,Washington,6000.0,56747.824,43.13,77634.0,10361.54,80.83,11.83,124.6,45544.0,87995.54,2247.6,93995.54,58995.42,0.63,47.6211,-122.3244
485,Accountant,Private,Entry,Tucson,Arizona,55000.0,44496.488,19.59,35262.0,3896.09,75.34,15.2,97.7,45544.0,39158.09,2545.68,94158.09,47042.17,0.5,32.1541,-110.8787
486,Accountant,Private,Entry,Klamath Falls,Oregon,50000.0,44223.224,24.32,43776.0,5185.42,72.27,14.12,97.1,45544.0,48961.42,2392.2,98961.42,46615.42,0.47,42.2195,-121.7754
487,Accountant,Private,Entry,Rancho Cordova,California,4500.0,57271.58,23.45,42210.0,7036.89,80.83,30.55,125.75,45544.0,49246.89,4269.36,53746.89,61540.94,1.15,38.5737,-121.2527
488,Accountant,Private,Entry,El Paso,Texas,40000.0,40351.984,27.45,49410.0,4118.69,80.83,15.32,88.6,45544.0,53528.69,2624.52,93528.69,42976.5,0.46,31.8476,-106.43
489,Accountant,Private,Entry,Cedar Rapids,Iowa,73000.0,40124.264,22.91,41238.0,3640.73,75.86,12.43,88.1,45544.0,44878.73,2252.76,117878.73,42377.02,0.36,41.9662,-91.6783
490,Accountant,Private,Entry,Baton Rouge,Louisiana,67500.0,41490.584,20.05,36090.0,3786.25,80.83,11.7,91.1,45544.0,39876.25,2233.56,107376.25,43724.14,0.41,30.442,-91.1311
491,Accountant,Private,Entry,Mission Viejo,California,105000.0,57271.58,40.28,72504.0,7036.89,80.83,30.55,125.75,45544.0,79540.89,4269.36,184540.89,61540.94,0.33,33.6096,-117.6551
492,Accountant,Private,Entry,Portales,New Mexico,53000.0,41271.9728,19.07,34326.0,4666.31,68.46,14.26,90.62,45544.0,38992.31,2361.6,91992.31,43633.57,0.47,34.1754,-103.3565
493,Accountant,Private,Entry,Philadelphia,Pennsylvania,58500.0,47092.496,38.14,68652.0,6843.04,84.33,17.6,103.4,45544.0,75495.04,2912.76,133995.04,50005.26,0.37,40.0077,-75.1339
494,Accountant,Private,Entry,Everett,Washington,39515.0,48741.1888,23.61,42498.0,6659.49,80.83,11.83,107.02,45544.0,49157.49,2247.6,88672.49,50988.79,0.58,47.9525,-122.1669
495,Accountant,Private,Entry,Houston,Texas,55500.0,43631.152,31.12,56016.0,5245.46,80.83,15.32,95.8,45544.0,61261.46,2624.52,116761.46,46255.67,0.4,29.786,-95.3885
496,Accountant,Private,Entry,San Antonio,Texas,63000.0,42219.288,27.34,49212.0,4251.07,80.83,15.32,92.7,45544.0,53463.07,2624.52,116463.07,44843.81,0.39,29.4632,-98.5238
497,Accountant,Private,Entry,Cleveland,Ohio,55000.0,40989.6,20.79,37422.0,3936.9,80.83,15.98,90.0,45544.0,41358.9,2695.8,96358.9,43685.4,0.45,41.4764,-81.6805
498,Accountant,Private,Entry,Medfield,Massachusetts,75500.0,52170.652,48.35,87030.0,6062.35,93.6,31.22,114.55,45544.0,93092.35,4494.96,168592.35,56665.61,0.34,,
499,Accountant,Private,Entry,Ewing,New Jersey,28000.0,47092.496,31.19,56142.0,8059.16,82.79,19.49,103.4,45544.0,64201.16,3098.4,92201.16,50190.9,0.54,,
500,Accountant,Private,Entry,Salt Lake City,Utah,56500.0,48231.096,26.96,48528.0,4143.37,69.01,11.02,105.9,45544.0,52671.37,2018.28,109171.37,50249.38,0.46,40.7776,-111.9311
501,Accountant,Private,Entry,Ashland,Nebraska,21725.0,41959.6872,20.59,37062.0,3902.3,80.83,10.78,92.13,45544.0,40964.3,2134.2,62689.3,44093.89,0.7,41.0396,-96.3723
502,Accountant,Private,Entry,Middleboro,Massachusetts,66000.0,52170.652,48.35,87030.0,6062.35,93.6,31.22,114.55,45544.0,93092.35,4494.96,159092.35,56665.61,0.36,,
503,Accountant,Private,Entry,Tualatin,Oregon,58000.0,48372.2824,26.83,48294.0,5185.42,72.27,14.12,106.21,45544.0,53479.42,2392.2,111479.42,50764.48,0.46,45.3772,-122.7748
504,Accountant,Private,Entry,Ypsilanti,Michigan,72500.0,40916.7296,21.42,38556.0,3880.78,80.83,18.41,89.84,45544.0,42436.78,2958.24,114936.78,43874.97,0.38,42.244,-83.6208
505,Accountant,Private,Entry,New York,New York,50000.0,58296.32,33.56,60408.0,10831.74,80.83,24.37,128.0,45544.0,71239.74,3601.92,121239.74,61898.24,0.51,40.6943,-73.9249
506,Accountant,Private,Entry,New Orleans,Louisiana,55000.0,42082.656,20.03,36054.0,4692.05,80.83,11.7,92.4,45544.0,40746.05,2233.56,95746.05,44316.22,0.46,30.0687,-89.9288
507,Accountant,Private,Entry,Carrollton,Texas,70500.0,41467.812,23.15,41670.0,5151.54,80.83,15.32,91.05,45544.0,46821.54,2624.52,117321.54,44092.33,0.38,32.989,-96.8999
508,Accountant,Private,Entry,Rolla,Missouri,69500.0,39973.9688,21.59,38862.0,3937.23,72.8,11.57,87.77,45544.0,42799.23,2123.16,112299.23,42097.13,0.37,37.9459,-91.7607
509,Accountant,Private,Entry,San Diego,California,55000.0,62030.928,41.6,74880.0,6210.03,80.83,30.55,136.2,45544.0,81090.03,4269.36,136090.03,66300.29,0.49,32.8313,-117.1222
510,Accountant,Private,Entry,San Francisco,California,92500.0,81341.584,62.2,111960.0,12650.66,80.83,30.55,178.6,45544.0,124610.66,4269.36,217110.66,85610.94,0.39,37.7558,-122.4449
511,Accountant,Private,Entry,Tooele,Utah,91500.0,45525.7824,24.79,44622.0,4143.37,69.01,11.02,99.96,45544.0,48765.37,2018.28,140265.37,47544.06,0.34,40.5393,-112.3082
512,Accountant,Private,Entry,Herriman,Utah,93000.0,45525.7824,24.79,44622.0,4143.37,69.01,11.02,99.96,45544.0,48765.37,2018.28,141765.37,47544.06,0.34,40.4899,-112.017
513,Accountant,Private,Entry,Roseville,California,34730.0,57271.58,26.64,47952.0,7036.89,80.83,30.55,125.75,45544.0,54988.89,4269.36,89718.89,61540.94,0.69,38.7703,-121.3196
514,Accountant,Private,Entry,Benicia,California,22000.0,57271.58,40.28,72504.0,7036.89,80.83,30.55,125.75,45544.0,79540.89,4269.36,101540.89,61540.94,0.61,38.0725,-122.1526
515,Accountant,Private,Entry,San Francisco,California,60000.0,81341.584,62.2,111960.0,12650.66,80.83,30.55,178.6,45544.0,124610.66,4269.36,184610.66,85610.94,0.46,37.7558,-122.4449
516,Accountant,Private,Entry,Bronx,New York,31595.0,44195.8976,33.56,60408.0,6758.4,80.83,24.37,97.04,45544.0,67166.4,3601.92,98761.4,47797.82,0.48,40.8501,-73.8662
517,Accountant,Private,Entry,Washington,District of Columbia,118000.0,54698.344,52.54,94572.0,7073.12,80.83,20.27,120.1,45544.0,101645.12,3159.03,219645.12,57857.38,0.26,38.9047,-77.0163
518,Accountant,Private,Entry,Florence,Alabama,20500.0,39532.192,20.67,37206.0,4021.31,74.1,14.91,86.8,45544.0,41227.31,2499.48,61727.31,42031.67,0.68,34.8303,-87.6655
519,Accountant,Private,Entry,Washington,District of Columbia,32500.0,54698.344,52.54,94572.0,7073.12,80.83,20.27,120.1,45544.0,101645.12,3159.03,134145.12,57857.38,0.43,38.9047,-77.0163
520,Accountant,Private,Entry,Houston,Texas,43000.0,43631.152,31.12,56016.0,5245.46,80.83,15.32,95.8,45544.0,61261.46,2624.52,104261.46,46255.67,0.44,29.786,-95.3885
521,Accountant,Private,Entry,Chino,California,127500.0,57271.58,40.28,72504.0,7036.89,80.83,30.55,125.75,45544.0,79540.89,4269.36,207040.89,61540.94,0.3,33.9836,-117.6654
522,Accountant,Private,Entry,Paramus,New Jersey,60000.0,47092.496,33.85,60930.0,8059.16,82.79,19.49,103.4,45544.0,68989.16,3098.4,128989.16,50190.9,0.39,40.9455,-74.0712
523,Accountant,Private,Entry,Boca Raton,Florida,71000.0,46117.8544,34.31,61758.0,4977.02,83.25,14.2,101.26,45544.0,66735.02,2532.6,137735.02,48650.45,0.35,26.3752,-80.108
524,Accountant,Private,Entry,Buffalo,New York,63000.0,44314.312,19.21,34578.0,4174.42,80.83,24.37,97.3,45544.0,38752.42,3601.92,101752.42,47916.23,0.47,42.9018,-78.8487
525,Accountant,Private,Entry,Glendale,Arizona,54500.0,45721.6216,31.99,57582.0,5339.23,75.34,15.2,100.39,45544.0,62921.23,2545.68,117421.23,48267.3,0.41,33.5791,-112.2311
526,Accountant,Private,Entry,Rochester,New York,55000.0,43995.504,21.48,38664.0,3519.92,80.83,24.37,96.6,45544.0,42183.92,3601.92,97183.92,47597.42,0.49,43.168,-77.6162
527,Accountant,Private,Entry,San Bernardino,California,71500.0,57271.58,20.05,36090.0,4760.21,80.83,30.55,125.75,45544.0,40850.21,4269.36,112350.21,61540.94,0.55,34.1416,-117.2943
528,Accountant,Private,Entry,Germantown,Maryland,64500.0,46054.0928,26.17,47106.0,6001.22,75.44,18.15,101.12,45544.0,53107.22,2865.48,117607.22,48919.57,0.42,39.1755,-77.2643
529,Accountant,Private,Entry,Wheeling,Illinois,61500.0,40106.0464,23.79,42822.0,7041.83,80.83,15.99,88.06,45544.0,49863.83,2696.88,111363.83,42802.93,0.38,42.1308,-87.924
530,Accountant,Private,Entry,Los Angeles,California,64500.0,64034.864,49.02,88236.0,6877.72,80.83,30.55,140.6,45544.0,95113.72,4269.36,159613.72,68304.22,0.43,34.1141,-118.4068
531,Accountant,Private,Entry,Hawthorne,New York,53500.0,44195.8976,33.56,60408.0,6758.4,80.83,24.37,97.04,45544.0,67166.4,3601.92,120666.4,47797.82,0.4,41.1035,-73.7968
532,Accountant,Private,Entry,Old Bridge,New Jersey,52500.0,47092.496,31.19,56142.0,8059.16,82.79,19.49,103.4,45544.0,64201.16,3098.4,116701.16,50190.9,0.43,,
533,Accountant,Private,Entry,Denver,Colorado,74000.0,51054.824,36.45,65610.0,6740.21,80.83,15.16,112.1,45544.0,72350.21,2607.24,146350.21,53662.06,0.37,39.762,-104.8758
534,Accountant,Private,Entry,Cincinnati,Ohio,48500.0,42082.656,18.83,33894.0,4560.93,80.83,15.98,92.4,45544.0,38454.93,2695.8,86954.93,44778.46,0.51,39.1413,-84.506
535,Accountant,Private,Entry,Plano,Texas,27460.0,41467.812,37.11,66798.0,7098.23,80.83,15.32,91.05,45544.0,73896.23,2624.52,101356.23,44092.33,0.44,33.0502,-96.7486
536,Accountant,Private,Entry,Covington,Georgia,26470.0,41854.936,23.66,42588.0,5285.46,80.83,13.49,91.9,45544.0,47873.46,2426.88,74343.46,44281.82,0.6,33.6049,-83.8463
537,Accountant,Private,Entry,Los Angeles,California,23500.0,64034.864,49.02,88236.0,6877.72,80.83,30.55,140.6,45544.0,95113.72,4269.36,118613.72,68304.22,0.58,34.1141,-118.4068
538,Accountant,Private,Entry,,Texas,51000.0,41467.812,27.45,49410.0,5151.54,80.83,15.32,91.05,45544.0,54561.54,2624.52,105561.54,44092.33,0.42,,
539,Accountant,Private,Entry,San Andreas,California,37415.0,57271.58,40.28,72504.0,7036.89,80.83,30.55,125.75,45544.0,79540.89,4269.36,116955.89,61540.94,0.53,38.1911,-120.6763
540,Accountant,Private,Entry,Casper,Wyoming,51500.0,42902.448,36.46,65628.0,7073.12,58.63,11.78,94.2,45544.0,72701.12,1975.8,124201.12,44878.25,0.36,42.842,-106.3208
541,Accountant,Private,Entry,Plano,Texas,61500.0,41467.812,37.11,66798.0,7098.23,80.83,15.32,91.05,45544.0,73896.23,2624.52,135396.23,44092.33,0.33,33.0502,-96.7486
542,Accountant,Private,Entry,Hooksett,New Hampshire,26260.0,49041.7792,26.74,48132.0,7073.12,80.83,23.62,107.68,45544.0,55205.12,3520.92,81465.12,52562.7,0.65,,
543,Accountant,Private,Entry,San Dimas,California,22000.0,57271.58,40.28,72504.0,7036.89,80.83,30.55,125.75,45544.0,79540.89,4269.36,101540.89,61540.94,0.61,34.1082,-117.809
544,Accountant,Private,Entry,Fort Worth,Texas,55500.0,41467.812,27.16,48888.0,5579.72,80.83,15.32,91.05,45544.0,54467.72,2624.52,109967.72,44092.33,0.4,32.7817,-97.3474
545,Accountant,Private,Entry,Garden City,New York,31205.0,44195.8976,37.86,68148.0,6758.4,80.83,24.37,97.04,45544.0,74906.4,3601.92,106111.4,47797.82,0.45,40.7266,-73.6447
546,Accountant,Private,Entry,Silverado,California,27500.0,57271.58,40.28,72504.0,7036.89,80.83,30.55,125.75,45544.0,79540.89,4269.36,107040.89,61540.94,0.57,33.7482,-117.6285
547,Accountant,Private,Entry,Corpus Christi,Texas,112500.0,42492.552,20.29,36522.0,3540.59,80.83,15.32,93.3,45544.0,40062.59,2624.52,152562.59,45117.07,0.3,27.7254,-97.3767
548,Accountant,Private,Entry,Haddonfield,New Jersey,75500.0,47092.496,31.19,56142.0,8059.16,82.79,19.49,103.4,45544.0,64201.16,3098.4,139701.16,50190.9,0.36,,
549,Accountant,Private,Entry,New York,New York,135000.0,58296.32,33.56,60408.0,10831.74,80.83,24.37,128.0,45544.0,71239.74,3601.92,206239.74,61898.24,0.3,40.6943,-73.9249
550,Accountant,Private,Entry,Lindon,Utah,92500.0,45525.7824,24.79,44622.0,4143.37,69.01,11.02,99.96,45544.0,48765.37,2018.28,141265.37,47544.06,0.34,40.3414,-111.7187
551,Accountant,Private,Entry,Fairfax,Virginia,13000.0,43134.7224,29.26,52668.0,5590.44,86.7,14.46,94.71,45544.0,58258.44,2602.08,71258.44,45736.8,0.64,38.8531,-77.2997
552,Accountant,Private,Entry,Los Angeles,California,85000.0,64034.864,49.02,88236.0,6877.72,80.83,30.55,140.6,45544.0,95113.72,4269.36,180113.72,68304.22,0.38,34.1141,-118.4068
553,Accountant,Private,Entry,New Canaan,Connecticut,57500.0,49442.5664,27.62,49716.0,7073.12,72.47,28.16,108.56,45544.0,56789.12,3910.92,114289.12,53353.49,0.47,41.142,-73.4905
554,Accountant,Private,Entry,Los Angeles,California,49000.0,64034.864,49.02,88236.0,6877.72,80.83,30.55,140.6,45544.0,95113.72,4269.36,144113.72,68304.22,0.47,34.1141,-118.4068
555,Accountant,Private,Entry,New Washington,Ohio,28640.0,40443.072,20.56,37008.0,4054.52,80.83,15.98,88.8,45544.0,41062.52,2695.8,69702.52,43138.87,0.62,40.9604,-82.8547
556,Accountant,Private,Entry,Clifton Park,New York,150000.0,44195.8976,33.56,60408.0,6758.4,80.83,24.37,97.04,45544.0,67166.4,3601.92,217166.4,47797.82,0.22,,
557,Accountant,Private,Entry,Abilene,Texas,73500.0,40579.704,27.45,49410.0,5151.54,80.83,15.32,89.1,45544.0,54561.54,2624.52,128061.54,43204.22,0.34,32.4543,-99.7384
558,Accountant,Private,Entry,Omaha,Nebraska,52500.0,42310.376,24.26,43668.0,4094.4,80.83,10.78,92.9,45544.0,47762.4,2134.2,100262.4,44444.58,0.44,41.2627,-96.0529
559,Accountant,Private,Entry,Gainesville,Georgia,50000.0,44177.68,23.66,42588.0,5285.46,80.83,13.49,97.0,45544.0,47873.46,2426.88,97873.46,46604.56,0.48,34.2902,-83.8294
560,Accountant,Private,Entry,Spring,Texas,68000.0,41467.812,36.54,65772.0,5151.54,80.83,15.32,91.05,45544.0,70923.54,2624.52,138923.54,44092.33,0.32,30.0613,-95.383
561,Accountant,Private,Entry,San Bernardino,California,26470.0,57271.58,20.05,36090.0,4760.21,80.83,30.55,125.75,45544.0,40850.21,4269.36,67320.21,61540.94,0.91,34.1416,-117.2943
562,Accountant,Private,Entry,Saint Charles,Missouri,49500.0,39973.9688,21.59,38862.0,3937.23,72.8,11.57,87.77,45544.0,42799.23,2123.16,92299.23,42097.13,0.46,,
563,Accountant,Private,Entry,Trenton,New Jersey,63000.0,47502.392,31.19,56142.0,8059.16,82.79,19.49,104.3,45544.0,64201.16,3098.4,127201.16,50600.79,0.4,40.2237,-74.7641
564,Accountant,Private,Entry,Deltona,Florida,32000.0,46117.8544,31.24,56232.0,4977.02,83.25,14.2,101.26,45544.0,61209.02,2532.6,93209.02,48650.45,0.52,28.905,-81.2137
565,Accountant,Private,Entry,South Jordan,Utah,79500.0,45525.7824,27.57,49626.0,4143.37,69.01,11.02,99.96,45544.0,53769.37,2018.28,133269.37,47544.06,0.36,40.557,-111.9784
566,Accountant,Private,Entry,Liberty,Texas,52000.0,41467.812,27.45,49410.0,5151.54,80.83,15.32,91.05,45544.0,54561.54,2624.52,106561.54,44092.33,0.41,30.0378,-94.7879
567,Accountant,Private,Entry,Seattle,Washington,10500.0,56747.824,43.13,77634.0,10361.54,80.83,11.83,124.6,45544.0,87995.54,2247.6,98495.54,58995.42,0.6,47.6211,-122.3244
568,Accountant,Private,Entry,Troy,Michigan,100000.0,40916.7296,19.87,35766.0,3880.78,80.83,18.41,89.84,45544.0,39646.78,2958.24,139646.78,43874.97,0.31,42.5817,-83.1457
569,Accountant,Private,Entry,Ontario,California,19000.0,57271.58,29.34,52812.0,6164.74,80.83,30.55,125.75,45544.0,58976.74,4269.36,77976.74,61540.94,0.79,34.0393,-117.6064
570,Accountant,Private,Entry,Los Alamos,New Mexico,81000.0,41271.9728,19.07,34326.0,4666.31,68.46,14.26,90.62,45544.0,38992.31,2361.6,119992.31,43633.57,0.36,35.8927,-106.2862
571,Accountant,Private,Entry,Albany,New York,67500.0,45589.544,19.46,35028.0,6758.4,80.83,24.37,100.1,45544.0,41786.4,3601.92,109286.4,49191.46,0.45,42.6664,-73.7987
572,Accountant,Private,Entry,Kilgore,Texas,45000.0,41467.812,27.45,49410.0,5151.54,80.83,15.32,91.05,45544.0,54561.54,2624.52,99561.54,44092.33,0.44,32.398,-94.8602
573,Accountant,Private,Entry,Suwanee,Georgia,123500.0,41854.936,23.66,42588.0,5285.46,80.83,13.49,91.9,45544.0,47873.46,2426.88,171373.46,44281.82,0.26,34.0508,-84.0686
574,Accountant,Private,Entry,,Indiana,202000.0,39759.912,20.45,36810.0,4331.59,80.83,14.42,87.3,45544.0,41141.59,2527.32,243141.59,42287.23,0.17,,
575,Accountant,Private,Entry,Las Vegas,Nevada,56500.0,45862.808,30.23,54414.0,5392.82,80.83,14.88,100.7,45544.0,59806.82,2577.0,116306.82,48439.81,0.42,36.2333,-115.2654
576,Accountant,Private,Entry,San Francisco,California,235000.0,81341.584,62.2,111960.0,12650.66,80.83,30.55,178.6,45544.0,124610.66,4269.36,359610.66,85610.94,0.24,37.7558,-122.4449
577,Accountant,Private,Entry,,Texas,5000.0,41467.812,27.45,49410.0,5151.54,80.83,15.32,91.05,45544.0,54561.54,2624.52,59561.54,44092.33,0.74,,
578,Accountant,Private,Entry,Fountain Valley,California,27500.0,57271.58,40.28,72504.0,7036.89,80.83,30.55,125.75,45544.0,79540.89,4269.36,107040.89,61540.94,0.57,33.7105,-117.9514
579,Accountant,Private,Entry,Vancouver,Washington,103000.0,48741.1888,27.34,49212.0,4996.3,80.83,11.83,107.02,45544.0,54208.3,2247.6,157208.3,50988.79,0.32,45.6366,-122.5967
